[
  {
    "Code": "1101010",
    "Parent": "1101",
    "Name": "TEUPAH SELATAN",
    "Latitude": "2.2738827445",
    "Longitude": "96.513062697495",
    "Postal": "23895,23898"
  },
  {
    "Code": "1101020",
    "Parent": "1101",
    "Name": "SIMEULUE TIMUR",
    "Latitude": "2.5382471300006",
    "Longitude": "96.316215958525",
    "Postal": "23891"
  },
  {
    "Code": "1101021",
    "Parent": "1101",
    "Name": "TEUPAH BARAT",
    "Latitude": "2.4483287785",
    "Longitude": "96.220352578001",
    "Postal": "23896,23897"
  },
  {
    "Code": "1101022",
    "Parent": "1101",
    "Name": "TEUPAH TENGAH",
    "Latitude": "2.407087034502",
    "Longitude": "96.346351218077",
    "Postal": "23899"
  },
  {
    "Code": "1101030",
    "Parent": "1101",
    "Name": "SIMEULUE TENGAH",
    "Latitude": "2.6260558764982",
    "Longitude": "96.048626298931",
    "Postal": "23894"
  },
  {
    "Code": "1101031",
    "Parent": "1101",
    "Name": "TELUK DALAM",
    "Latitude": "2.6478292040003",
    "Longitude": "96.153125367008",
    "Postal": "23897,23890"
  },
  {
    "Code": "1101032",
    "Parent": "1101",
    "Name": "SIMEULUE CUT",
    "Latitude": "2.6047916045046",
    "Longitude": "95.934081918672",
    "Postal": "23895"
  },
  {
    "Code": "1101040",
    "Parent": "1101",
    "Name": "SALANG",
    "Latitude": "2.6728654114999",
    "Longitude": "95.854035678992",
    "Postal": "23893,23896"
  },
  {
    "Code": "1101050",
    "Parent": "1101",
    "Name": "SIMEULUE BARAT",
    "Latitude": "2.7946343975001",
    "Longitude": "95.953281501003",
    "Postal": "23892"
  },
  {
    "Code": "1101051",
    "Parent": "1101",
    "Name": "ALAFAN",
    "Latitude": "2.8612178494998",
    "Longitude": "95.602882879992",
    "Postal": "23898,23893"
  },
  {
    "Code": "1102010",
    "Parent": "1102",
    "Name": "PULAU BANYAK",
    "Latitude": "2.2603235335002",
    "Longitude": "97.375390389004",
    "Postal": "24791"
  },
  {
    "Code": "1102011",
    "Parent": "1102",
    "Name": "PULAU BANYAK BARAT",
    "Latitude": "2.1578773015",
    "Longitude": "97.234976282997",
    "Postal": "24792,24790"
  },
  {
    "Code": "1102020",
    "Parent": "1102",
    "Name": "SINGKIL",
    "Latitude": "2.3352877230009",
    "Longitude": "97.804449892037",
    "Postal": "24784,24785"
  },
  {
    "Code": "1102021",
    "Parent": "1102",
    "Name": "SINGKIL UTARA",
    "Latitude": "2.2448669834998",
    "Longitude": "98.006072678491",
    "Postal": "24787,24791"
  },
  {
    "Code": "1102022",
    "Parent": "1102",
    "Name": "KUALA BARU",
    "Latitude": "2.3614563289999",
    "Longitude": "97.673419963496",
    "Postal": "24788,24789"
  },
  {
    "Code": "1102030",
    "Parent": "1102",
    "Name": "SIMPANG KANAN",
    "Latitude": "2.4079211740009",
    "Longitude": "98.037092785538",
    "Postal": "24783,24794"
  },
  {
    "Code": "1102031",
    "Parent": "1102",
    "Name": "GUNUNG MERIAH",
    "Latitude": "2.3940494074995",
    "Longitude": "97.964136358479",
    "Postal": "24784,24783,24785,24793"
  },
  {
    "Code": "1102032",
    "Parent": "1102",
    "Name": "DANAU PARIS",
    "Latitude": "2.3127871315005",
    "Longitude": "98.112520645518",
    "Postal": "24771,24784"
  },
  {
    "Code": "1102033",
    "Parent": "1102",
    "Name": "SURO",
    "Latitude": "2.530352222497",
    "Longitude": "98.024271097878",
    "Postal": "24772,24787"
  },
  {
    "Code": "1102042",
    "Parent": "1102",
    "Name": "SINGKOHOR",
    "Latitude": "2.5001323339985",
    "Longitude": "97.940895222434",
    "Postal": "24774,24773,24788"
  },
  {
    "Code": "1102043",
    "Parent": "1102",
    "Name": "KOTA BAHARU",
    "Latitude": "2.4628439115002",
    "Longitude": "97.858888223005",
    "Postal": "24774,24792"
  },
  {
    "Code": "1103010",
    "Parent": "1103",
    "Name": "TRUMON",
    "Latitude": "2.6380753274995",
    "Longitude": "97.708471569479",
    "Postal": "23778,23774"
  },
  {
    "Code": "1103011",
    "Parent": "1103",
    "Name": "TRUMON TIMUR",
    "Latitude": "2.8835366505007",
    "Longitude": "97.81065261052",
    "Postal": "23776"
  },
  {
    "Code": "1103012",
    "Parent": "1103",
    "Name": "TRUMON TENGAH",
    "Latitude": "2.8942266124976",
    "Longitude": "97.659239574422",
    "Postal": "23777,23771,23775"
  },
  {
    "Code": "1103020",
    "Parent": "1103",
    "Name": "BAKONGAN",
    "Latitude": "2.9610274099967",
    "Longitude": "97.456076244384",
    "Postal": "23773,23777,23772"
  },
  {
    "Code": "1103021",
    "Parent": "1103",
    "Name": "BAKONGAN TIMUR",
    "Latitude": "2.9111470265061",
    "Longitude": "97.555684722692",
    "Postal": "23777,23775"
  },
  {
    "Code": "1103022",
    "Parent": "1103",
    "Name": "KOTA BAHAGIA",
    "Latitude": "3.0221733164998",
    "Longitude": "97.552847016994",
    "Postal": "23778,23774"
  },
  {
    "Code": "1103030",
    "Parent": "1103",
    "Name": "KLUET SELATAN",
    "Latitude": "3.0294224160002",
    "Longitude": "97.434325239508",
    "Postal": "23773,23772"
  },
  {
    "Code": "1103031",
    "Parent": "1103",
    "Name": "KLUET TIMUR",
    "Latitude": "3.23056178",
    "Longitude": "97.459219341997",
    "Postal": "23779"
  },
  {
    "Code": "1103040",
    "Parent": "1103",
    "Name": "KLUET UTARA",
    "Latitude": "3.1287943749992",
    "Longitude": "97.345608634968",
    "Postal": "23771,23775"
  },
  {
    "Code": "1103041",
    "Parent": "1103",
    "Name": "PASIE RAJA",
    "Latitude": "3.2297760445012",
    "Longitude": "97.30675954553",
    "Postal": "23755"
  },
  {
    "Code": "1103042",
    "Parent": "1103",
    "Name": "KLUET TENGAH",
    "Latitude": "3.4035207454999",
    "Longitude": "97.359011241495",
    "Postal": "23756,23753,23770"
  },
  {
    "Code": "1103050",
    "Parent": "1103",
    "Name": "TAPAK TUAN",
    "Latitude": "3.2880866155009",
    "Longitude": "97.214927199028",
    "Postal": "23711,23712,23713,23714,23715,23716,23717,23718,23719"
  },
  {
    "Code": "1103060",
    "Parent": "1103",
    "Name": "SAMA DUA",
    "Latitude": "3.3551836169992",
    "Longitude": "97.195743133473",
    "Postal": "23754,23752"
  },
  {
    "Code": "1103070",
    "Parent": "1103",
    "Name": "SAWANG",
    "Latitude": "3.4351094220002",
    "Longitude": "97.169694655004",
    "Postal": "23757,23752,23753"
  },
  {
    "Code": "1103080",
    "Parent": "1103",
    "Name": "MEUKEK",
    "Latitude": "3.5793117025002",
    "Longitude": "97.163182195004",
    "Postal": "23756,23754,23755,23752,23753"
  },
  {
    "Code": "1103090",
    "Parent": "1103",
    "Name": "LABUHAN HAJI",
    "Latitude": "3.6371583434997",
    "Longitude": "97.065634565494",
    "Postal": "23761,23765"
  },
  {
    "Code": "1103091",
    "Parent": "1103",
    "Name": "LABUHAN HAJI TIMUR",
    "Latitude": "3.6187367020015",
    "Longitude": "97.081745096542",
    "Postal": "23758"
  },
  {
    "Code": "1103092",
    "Parent": "1103",
    "Name": "LABUHAN HAJI BARAT",
    "Latitude": "3.6509875145",
    "Longitude": "97.046927004498",
    "Postal": "23757,23753"
  },
  {
    "Code": "1104010",
    "Parent": "1104",
    "Name": "LAWE ALAS",
    "Latitude": "3.4403213754943",
    "Longitude": "97.819721616843",
    "Postal": "24665,24661"
  },
  {
    "Code": "1104011",
    "Parent": "1104",
    "Name": "BABUL RAHMAH",
    "Latitude": "3.148428026",
    "Longitude": "97.790034622998",
    "Postal": "24663,24675"
  },
  {
    "Code": "1104012",
    "Parent": "1104",
    "Name": "TANOH ALAS",
    "Latitude": "3.2223777244995",
    "Longitude": "97.666259745984",
    "Postal": "24662,24674"
  },
  {
    "Code": "1104020",
    "Parent": "1104",
    "Name": "LAWE SIGALA-GALA",
    "Latitude": "3.3463764889952",
    "Longitude": "97.943696278861",
    "Postal": "24673,24664,24676"
  },
  {
    "Code": "1104021",
    "Parent": "1104",
    "Name": "BABUL MAKMUR",
    "Latitude": "3.3152121049938",
    "Longitude": "97.966395599819",
    "Postal": "24674,24671,24673"
  },
  {
    "Code": "1104022",
    "Parent": "1104",
    "Name": "SEMADAM",
    "Latitude": "3.3918664979975",
    "Longitude": "97.879370966925",
    "Postal": "24675,24678"
  },
  {
    "Code": "1104023",
    "Parent": "1104",
    "Name": "LEUSER",
    "Latitude": "3.1520565980018",
    "Longitude": "97.922264873049",
    "Postal": "24664,24677"
  },
  {
    "Code": "1104030",
    "Parent": "1104",
    "Name": "BAMBEL",
    "Latitude": "3.4488871800004",
    "Longitude": "97.89007997951",
    "Postal": "24674,24671,24677,24673,24672"
  },
  {
    "Code": "1104031",
    "Parent": "1104",
    "Name": "BUKIT TUSAM",
    "Latitude": "3.4135039120151",
    "Longitude": "97.868864319943",
    "Postal": "24676,24671"
  },
  {
    "Code": "1104032",
    "Parent": "1104",
    "Name": "LAWE SUMUR",
    "Latitude": "3.4751103674902",
    "Longitude": "97.892401141221",
    "Postal": "24672,24664,24657,24670"
  },
  {
    "Code": "1104040",
    "Parent": "1104",
    "Name": "BABUSSALAM",
    "Latitude": "3.4867392455203",
    "Longitude": "97.807427406584",
    "Postal": "24611,24619,24664,24683"
  },
  {
    "Code": "1104041",
    "Parent": "1104",
    "Name": "LAWE BULAN",
    "Latitude": "3.5025642600106",
    "Longitude": "97.867180444298",
    "Postal": "24677,24675,24657,24665"
  },
  {
    "Code": "1104050",
    "Parent": "1104",
    "Name": "BADAR",
    "Latitude": "3.5968242705022",
    "Longitude": "97.81727551056",
    "Postal": "24652,24666"
  },
  {
    "Code": "1104051",
    "Parent": "1104",
    "Name": "DARUL HASANAH",
    "Latitude": "3.4938575260001",
    "Longitude": "97.503541482501",
    "Postal": "24665,24664,24663"
  },
  {
    "Code": "1104052",
    "Parent": "1104",
    "Name": "KETAMBE",
    "Latitude": "3.6567205465002",
    "Longitude": "97.723654106505",
    "Postal": "24679,24662"
  },
  {
    "Code": "1104053",
    "Parent": "1104",
    "Name": "DELENG POKHKISEN",
    "Latitude": "3.532672179997",
    "Longitude": "97.858323669415",
    "Postal": "24678,24664,24660"
  },
  {
    "Code": "1105080",
    "Parent": "1105",
    "Name": "SERBA JADI",
    "Latitude": "4.4587113220001",
    "Longitude": "97.468888213999",
    "Postal": "24464,24461,24460"
  },
  {
    "Code": "1105081",
    "Parent": "1105",
    "Name": "SIMPANG JERNIH",
    "Latitude": "4.3739870624985",
    "Longitude": "97.694665037465",
    "Postal": "24463,24464"
  },
  {
    "Code": "1105082",
    "Parent": "1105",
    "Name": "PEUNARON",
    "Latitude": "4.6209151325017",
    "Longitude": "97.653345391532",
    "Postal": "24462,24461"
  },
  {
    "Code": "1105090",
    "Parent": "1105",
    "Name": "BIREM BAYEUN",
    "Latitude": "4.4851855309995",
    "Longitude": "97.886333119487",
    "Postal": "24464,24452"
  },
  {
    "Code": "1105100",
    "Parent": "1105",
    "Name": "RANTAU SELAMAT",
    "Latitude": "4.6063998710015",
    "Longitude": "97.846152087028",
    "Postal": "24456,24452,24451"
  },
  {
    "Code": "1105101",
    "Parent": "1105",
    "Name": "SUNGAI RAYA",
    "Latitude": "4.6721276209973",
    "Longitude": "97.879270276439",
    "Postal": "24465,24466"
  },
  {
    "Code": "1105110",
    "Parent": "1105",
    "Name": "PEUREULAK",
    "Latitude": "4.7792623680024",
    "Longitude": "97.848805868049",
    "Postal": "24455,24454,24457,24459,24453"
  },
  {
    "Code": "1105111",
    "Parent": "1105",
    "Name": "PEUREULAK TIMUR",
    "Latitude": "4.7218866220015",
    "Longitude": "97.886407003034",
    "Postal": "24469,24466,24468,24440"
  },
  {
    "Code": "1105112",
    "Parent": "1105",
    "Name": "PEUREULAK BARAT",
    "Latitude": "4.8525841214883",
    "Longitude": "97.854430368253",
    "Postal": "24467,24450"
  },
  {
    "Code": "1105120",
    "Parent": "1105",
    "Name": "RANTO PEUREULAK",
    "Latitude": "4.7565544360005",
    "Longitude": "97.713402674011",
    "Postal": "24423,24441"
  },
  {
    "Code": "1105130",
    "Parent": "1105",
    "Name": "IDI RAYEUK",
    "Latitude": "4.9548551605143",
    "Longitude": "97.761510057782",
    "Postal": "24455,24454,24457,24456,24453,24458,24442"
  },
  {
    "Code": "1105131",
    "Parent": "1105",
    "Name": "PEUDAWA",
    "Latitude": "4.8884123424995",
    "Longitude": "97.815091361985",
    "Postal": "24464,24469,24466,24468"
  },
  {
    "Code": "1105132",
    "Parent": "1105",
    "Name": "BANDA ALAM",
    "Latitude": "4.8646096784962",
    "Longitude": "97.692214101917",
    "Postal": "24484,24458"
  },
  {
    "Code": "1105133",
    "Parent": "1105",
    "Name": "IDI TUNONG",
    "Latitude": "4.9089611224871",
    "Longitude": "97.719799316248",
    "Postal": "24481,24483,24443"
  },
  {
    "Code": "1105134",
    "Parent": "1105",
    "Name": "DARUL IHSAN",
    "Latitude": "4.9060445105057",
    "Longitude": "97.76058574361",
    "Postal": "24482,24468"
  },
  {
    "Code": "1105135",
    "Parent": "1105",
    "Name": "IDI TIMUR",
    "Latitude": "4.9110578710035",
    "Longitude": "97.796343401062",
    "Postal": "24481,24456"
  },
  {
    "Code": "1105140",
    "Parent": "1105",
    "Name": "DARUL AMAN",
    "Latitude": "4.966071826995",
    "Longitude": "97.707489355409",
    "Postal": "24455,24453"
  },
  {
    "Code": "1105150",
    "Parent": "1105",
    "Name": "NURUSSALAM",
    "Latitude": "4.9697084354989",
    "Longitude": "97.66480595398",
    "Postal": "24454,24457,24451,24456,24452,24458,24467"
  },
  {
    "Code": "1105151",
    "Parent": "1105",
    "Name": "DARUL FALAH",
    "Latitude": "5.0129611160143",
    "Longitude": "97.643586561262",
    "Postal": "24486,24454"
  },
  {
    "Code": "1105160",
    "Parent": "1105",
    "Name": "JULOK",
    "Latitude": "5.0385686230067",
    "Longitude": "97.600389647627",
    "Postal": "24455,24454,24457,24459,24456,24453,24458"
  },
  {
    "Code": "1105161",
    "Parent": "1105",
    "Name": "INDRA MAKMUR",
    "Latitude": "4.861722271999",
    "Longitude": "97.589031395974",
    "Postal": "24423,24457"
  },
  {
    "Code": "1105170",
    "Parent": "1105",
    "Name": "PANTE BIDARI",
    "Latitude": "4.921941928499",
    "Longitude": "97.445490602978",
    "Postal": "24487,24463"
  },
  {
    "Code": "1105180",
    "Parent": "1105",
    "Name": "SIMPANG ULIM",
    "Latitude": "5.1138050004922",
    "Longitude": "97.579955581851",
    "Postal": "24454,24456,24458,24465"
  },
  {
    "Code": "1105181",
    "Parent": "1105",
    "Name": "MADAT",
    "Latitude": "5.1713283875007",
    "Longitude": "97.518095017518",
    "Postal": "24457,24459,24453,24462"
  },
  {
    "Code": "1106010",
    "Parent": "1106",
    "Name": "LINGE",
    "Latitude": "4.3628738629999",
    "Longitude": "97.073620971496",
    "Postal": "24563,24565"
  },
  {
    "Code": "1106011",
    "Parent": "1106",
    "Name": "ATU LINTANG",
    "Latitude": "4.4376551365059",
    "Longitude": "96.780330064627",
    "Postal": "24572,24563"
  },
  {
    "Code": "1106012",
    "Parent": "1106",
    "Name": "JAGONG JEGET",
    "Latitude": "4.375957876002",
    "Longitude": "96.723642175545",
    "Postal": "24571,24573,24564"
  },
  {
    "Code": "1106020",
    "Parent": "1106",
    "Name": "BINTANG",
    "Latitude": "4.5493145719998",
    "Longitude": "97.135704370996",
    "Postal": "24571,24573"
  },
  {
    "Code": "1106031",
    "Parent": "1106",
    "Name": "LUT TAWAR",
    "Latitude": "4.5820437804917",
    "Longitude": "96.880956557326",
    "Postal": "24511,24512,24513,24514,24515,24516"
  },
  {
    "Code": "1106032",
    "Parent": "1106",
    "Name": "KEBAYAKAN",
    "Latitude": "4.6592048445089",
    "Longitude": "96.869523938182",
    "Postal": "24527,24528,24529,24517,24519"
  },
  {
    "Code": "1106040",
    "Parent": "1106",
    "Name": "PEGASING",
    "Latitude": "4.5010038515008",
    "Longitude": "96.723298218016",
    "Postal": "24561,24560"
  },
  {
    "Code": "1106041",
    "Parent": "1106",
    "Name": "BIES",
    "Latitude": "4.6110341615012",
    "Longitude": "96.79216809452",
    "Postal": "24564,24561"
  },
  {
    "Code": "1106050",
    "Parent": "1106",
    "Name": "BEBESEN",
    "Latitude": "4.6378553224931",
    "Longitude": "96.813285714352",
    "Postal": "24552"
  },
  {
    "Code": "1106051",
    "Parent": "1106",
    "Name": "KUTE PANANG",
    "Latitude": "4.6840657264721",
    "Longitude": "96.771529586918",
    "Postal": "24555,24553,24568"
  },
  {
    "Code": "1106060",
    "Parent": "1106",
    "Name": "SILIH NARA",
    "Latitude": "4.6233429239927",
    "Longitude": "96.719754720842",
    "Postal": "24562,24569"
  },
  {
    "Code": "1106061",
    "Parent": "1106",
    "Name": "KETOL",
    "Latitude": "4.8032841854995",
    "Longitude": "96.597146626489",
    "Postal": "24556,24566"
  },
  {
    "Code": "1106062",
    "Parent": "1106",
    "Name": "CELALA",
    "Latitude": "4.5354566415012",
    "Longitude": "96.681049180523",
    "Postal": "24565,24562"
  },
  {
    "Code": "1106063",
    "Parent": "1106",
    "Name": "RUSIP ANTARA",
    "Latitude": "4.7256575334993",
    "Longitude": "96.463582889986",
    "Postal": "24566,24567"
  },
  {
    "Code": "1107050",
    "Parent": "1107",
    "Name": "JOHAN PAHLAWAN",
    "Latitude": "4.1866612170049",
    "Longitude": "96.117953379612",
    "Postal": "23617,23618"
  },
  {
    "Code": "1107060",
    "Parent": "1107",
    "Name": "SAMATIGA",
    "Latitude": "4.2509938715031",
    "Longitude": "96.061422415567",
    "Postal": "23652,23650"
  },
  {
    "Code": "1107061",
    "Parent": "1107",
    "Name": "BUBON",
    "Latitude": "4.3017629604958",
    "Longitude": "96.115392660411",
    "Postal": "23686,23681,23684,23651"
  },
  {
    "Code": "1107062",
    "Parent": "1107",
    "Name": "ARONGAN LAMBALEK",
    "Latitude": "4.3337936925023",
    "Longitude": "95.953590400048",
    "Postal": "23659,23657,23654,23653,23652"
  },
  {
    "Code": "1107070",
    "Parent": "1107",
    "Name": "WOYLA",
    "Latitude": "4.4023972230009",
    "Longitude": "96.09380342102",
    "Postal": "23688,23682,23685,23684,23654"
  },
  {
    "Code": "1107071",
    "Parent": "1107",
    "Name": "WOYLA BARAT",
    "Latitude": "4.4159472435016",
    "Longitude": "95.984856167528",
    "Postal": "23688,23683,23685,23682"
  },
  {
    "Code": "1107072",
    "Parent": "1107",
    "Name": "WOYLA TIMUR",
    "Latitude": "4.463685896003",
    "Longitude": "96.089612062565",
    "Postal": "23686,23681,23684,23683"
  },
  {
    "Code": "1107080",
    "Parent": "1107",
    "Name": "KAWAY XVI",
    "Latitude": "4.2717118924993",
    "Longitude": "96.209865075986",
    "Postal": "23686,23681,23684"
  },
  {
    "Code": "1107081",
    "Parent": "1107",
    "Name": "MEUREUBO",
    "Latitude": "4.1644431315046",
    "Longitude": "96.208985842611",
    "Postal": "23687,23615"
  },
  {
    "Code": "1107082",
    "Parent": "1107",
    "Name": "PANTAI CEUREMEN",
    "Latitude": "4.4859488359999",
    "Longitude": "96.331581069998",
    "Postal": "23680"
  },
  {
    "Code": "1107083",
    "Parent": "1107",
    "Name": "PANTON REU",
    "Latitude": "4.4481293469972",
    "Longitude": "96.209037894436",
    "Postal": "23689,23684"
  },
  {
    "Code": "1107090",
    "Parent": "1107",
    "Name": "SUNGAI MAS",
    "Latitude": "4.6361312119995",
    "Longitude": "96.237477338989",
    "Postal": "23681,23683,23685"
  },
  {
    "Code": "1108010",
    "Parent": "1108",
    "Name": "LHOONG",
    "Latitude": "5.2644545975026",
    "Longitude": "95.286277800045",
    "Postal": "23353,23354"
  },
  {
    "Code": "1108020",
    "Parent": "1108",
    "Name": "LHOKNGA",
    "Latitude": "5.4683436600094",
    "Longitude": "95.260858740162",
    "Postal": "23353,23355"
  },
  {
    "Code": "1108021",
    "Parent": "1108",
    "Name": "LEUPUNG",
    "Latitude": "5.3437342189859",
    "Longitude": "95.311398239746",
    "Postal": "23355,23353"
  },
  {
    "Code": "1108030",
    "Parent": "1108",
    "Name": "INDRAPURI",
    "Latitude": "5.4175645800037",
    "Longitude": "95.457928860066",
    "Postal": "23363,23385,23955,23365"
  },
  {
    "Code": "1108031",
    "Parent": "1108",
    "Name": "KUTA COT GLIE",
    "Latitude": "5.3423054139977",
    "Longitude": "95.47178003996",
    "Postal": "23955,23364"
  },
  {
    "Code": "1108040",
    "Parent": "1108",
    "Name": "SEULIMEUM",
    "Latitude": "5.4676679619995",
    "Longitude": "95.638938335989",
    "Postal": "23951"
  },
  {
    "Code": "1108041",
    "Parent": "1108",
    "Name": "KOTA JANTHO",
    "Latitude": "5.1861663900002",
    "Longitude": "95.680536840003",
    "Postal": "23911,23913,23914,23915,23916,23917,23919,23951,23918"
  },
  {
    "Code": "1108042",
    "Parent": "1108",
    "Name": "LEMBAH SEULAWAH",
    "Latitude": "5.3673237900073",
    "Longitude": "95.707380240126",
    "Postal": "23952"
  },
  {
    "Code": "1108050",
    "Parent": "1108",
    "Name": "MESJID RAYA",
    "Latitude": "5.5766870620019",
    "Longitude": "95.498233548033",
    "Postal": "23381"
  },
  {
    "Code": "1108060",
    "Parent": "1108",
    "Name": "DARUSSALAM",
    "Latitude": "5.5950632550062",
    "Longitude": "95.418407520101",
    "Postal": "23374,23373,23371,23955,23372"
  },
  {
    "Code": "1108061",
    "Parent": "1108",
    "Name": "BAITUSSALAM",
    "Latitude": "5.5998474204671",
    "Longitude": "95.383099799441",
    "Postal": "23374,23373,23372"
  },
  {
    "Code": "1108070",
    "Parent": "1108",
    "Name": "KUTA BARO",
    "Latitude": "5.5564172099942",
    "Longitude": "95.426614259897",
    "Postal": "23374,23373,23955,23372"
  },
  {
    "Code": "1108080",
    "Parent": "1108",
    "Name": "MONTASIK",
    "Latitude": "5.4963121049948",
    "Longitude": "95.459457239912",
    "Postal": "23362"
  },
  {
    "Code": "1108081",
    "Parent": "1108",
    "Name": "BLANG BINTANG",
    "Latitude": "5.5281017249859",
    "Longitude": "95.440394159751",
    "Postal": "23368,23955,23360"
  },
  {
    "Code": "1108090",
    "Parent": "1108",
    "Name": "INGIN JAYA",
    "Latitude": "5.5092169359708",
    "Longitude": "95.374367099492",
    "Postal": "23371,23955"
  },
  {
    "Code": "1108091",
    "Parent": "1108",
    "Name": "KRUENG BARONA JAYA",
    "Latitude": "5.5495346293983",
    "Longitude": "95.36308343823",
    "Postal": "23367,23370"
  },
  {
    "Code": "1108100",
    "Parent": "1108",
    "Name": "SUKA MAKMUR",
    "Latitude": "5.4328208850135",
    "Longitude": "95.364281520232",
    "Postal": "23361"
  },
  {
    "Code": "1108101",
    "Parent": "1108",
    "Name": "KUTA MALAKA",
    "Latitude": "5.4306297450436",
    "Longitude": "95.395370400749",
    "Postal": "23364,23365"
  },
  {
    "Code": "1108102",
    "Parent": "1108",
    "Name": "SIMPANG TIGA",
    "Latitude": "5.4515708999907",
    "Longitude": "95.342833619833",
    "Postal": "23366,23365,23375"
  },
  {
    "Code": "1108110",
    "Parent": "1108",
    "Name": "DARUL IMARAH",
    "Latitude": "5.5052557470079",
    "Longitude": "95.314937760144",
    "Postal": "23352,23955"
  },
  {
    "Code": "1108111",
    "Parent": "1108",
    "Name": "DARUL KAMAL",
    "Latitude": "5.4657405000665",
    "Longitude": "95.324808241158",
    "Postal": "23366,23365,23350"
  },
  {
    "Code": "1108120",
    "Parent": "1108",
    "Name": "PEUKAN BADA",
    "Latitude": "5.5411243634905",
    "Longitude": "95.221380274334",
    "Postal": "23351"
  },
  {
    "Code": "1108130",
    "Parent": "1108",
    "Name": "PULO ACEH",
    "Latitude": "5.6781442610054",
    "Longitude": "95.102543627094",
    "Postal": "23391"
  },
  {
    "Code": "1109010",
    "Parent": "1109",
    "Name": "GEUMPANG",
    "Latitude": "4.8497255560007",
    "Longitude": "96.277957129514",
    "Postal": "24167"
  },
  {
    "Code": "1109011",
    "Parent": "1109",
    "Name": "MANE",
    "Latitude": "4.8685507624986",
    "Longitude": "96.131350798472",
    "Postal": "24168,24166,24189"
  },
  {
    "Code": "1109070",
    "Parent": "1109",
    "Name": "GLUMPANG TIGA",
    "Latitude": "5.2091616484961",
    "Longitude": "96.026551499925",
    "Postal": "24183"
  },
  {
    "Code": "1109071",
    "Parent": "1109",
    "Name": "GLUMPANG BARO",
    "Latitude": "5.2790513639619",
    "Longitude": "96.030973260787",
    "Postal": "24175,24180"
  },
  {
    "Code": "1109080",
    "Parent": "1109",
    "Name": "MUTIARA",
    "Latitude": "5.2884370229964",
    "Longitude": "95.973129682436",
    "Postal": "24173,24172"
  },
  {
    "Code": "1109081",
    "Parent": "1109",
    "Name": "MUTIARA TIMUR",
    "Latitude": "5.2608527994863",
    "Longitude": "95.988755974254",
    "Postal": "24176,24172,24175"
  },
  {
    "Code": "1109090",
    "Parent": "1109",
    "Name": "TIRO/TRUSEB",
    "Latitude": "5.137974039999",
    "Longitude": "95.985069512478",
    "Postal": "24174"
  },
  {
    "Code": "1109100",
    "Parent": "1109",
    "Name": "TANGSE",
    "Latitude": "5.0349197150007",
    "Longitude": "95.937246776513",
    "Postal": "24165,24168,24166"
  },
  {
    "Code": "1109111",
    "Parent": "1109",
    "Name": "KEUMALA",
    "Latitude": "5.2193682235109",
    "Longitude": "95.865699388202",
    "Postal": "24162,24165,24163,24161,24166"
  },
  {
    "Code": "1109112",
    "Parent": "1109",
    "Name": "TITEUE",
    "Latitude": "5.2052294570167",
    "Longitude": "95.911230323815",
    "Postal": "24162,24161,24164,24169,24168"
  },
  {
    "Code": "1109120",
    "Parent": "1109",
    "Name": "SAKTI",
    "Latitude": "5.2454122225146",
    "Longitude": "95.923043899769",
    "Postal": "24164,24169"
  },
  {
    "Code": "1109130",
    "Parent": "1109",
    "Name": "MILA",
    "Latitude": "5.2842416075",
    "Longitude": "95.88971857449",
    "Postal": "24162,24165,24163,24161,24164"
  },
  {
    "Code": "1109140",
    "Parent": "1109",
    "Name": "PADANG TIJI",
    "Latitude": "5.3473007980012",
    "Longitude": "95.818880979525",
    "Postal": "24161"
  },
  {
    "Code": "1109150",
    "Parent": "1109",
    "Name": "DELIMA",
    "Latitude": "5.3401115059027",
    "Longitude": "95.901057034743",
    "Postal": "24162,24165,24163,24161,24169"
  },
  {
    "Code": "1109151",
    "Parent": "1109",
    "Name": "GRONG GRONG",
    "Latitude": "5.3741268468983",
    "Longitude": "95.901662501178",
    "Postal": "24150"
  },
  {
    "Code": "1109160",
    "Parent": "1109",
    "Name": "INDRAJAYA",
    "Latitude": "5.3113422155301",
    "Longitude": "95.939065090548",
    "Postal": "24171,24172"
  },
  {
    "Code": "1109170",
    "Parent": "1109",
    "Name": "PEUKAN BARO",
    "Latitude": "5.3206888029802",
    "Longitude": "95.963830121143",
    "Postal": "24171,24176,24172"
  },
  {
    "Code": "1109180",
    "Parent": "1109",
    "Name": "KEMBANG TANJONG",
    "Latitude": "5.3117818485238",
    "Longitude": "96.047452948429",
    "Postal": "24183,24182,24186,24181,24185,24187"
  },
  {
    "Code": "1109190",
    "Parent": "1109",
    "Name": "SIMPANG TIGA",
    "Latitude": "5.3413442080262",
    "Longitude": "95.99646717098",
    "Postal": "24183,24182,24181,24185"
  },
  {
    "Code": "1109200",
    "Parent": "1109",
    "Name": "KOTA SIGLI",
    "Latitude": "5.382041870906",
    "Longitude": "95.955143498323",
    "Postal": "24111,24112,24113,24114,24115,24116,24117,24118,24119"
  },
  {
    "Code": "1109210",
    "Parent": "1109",
    "Name": "PIDIE",
    "Latitude": "5.3759578059984",
    "Longitude": "95.935403358463",
    "Postal": "24152,24154,24153,24151"
  },
  {
    "Code": "1109220",
    "Parent": "1109",
    "Name": "BATEE",
    "Latitude": "5.4264900204868",
    "Longitude": "95.89151487077",
    "Postal": "24152,24153,24151"
  },
  {
    "Code": "1109230",
    "Parent": "1109",
    "Name": "MUARA TIGA",
    "Latitude": "5.5067787049959",
    "Longitude": "95.808737469429",
    "Postal": "24153,24151"
  },
  {
    "Code": "1110010",
    "Parent": "1110",
    "Name": "SAMALANGA",
    "Latitude": "5.0805302934915",
    "Longitude": "96.357754473834",
    "Postal": "24263,24262,24261,24264"
  },
  {
    "Code": "1110011",
    "Parent": "1110",
    "Name": "SIMPANG MAMPLAM",
    "Latitude": "5.0840356729999",
    "Longitude": "96.428305842497",
    "Postal": "24263,24262,24265,24253"
  },
  {
    "Code": "1110020",
    "Parent": "1110",
    "Name": "PANDRAH",
    "Latitude": "5.0741568069997",
    "Longitude": "96.447670399488",
    "Postal": "24266,24265"
  },
  {
    "Code": "1110030",
    "Parent": "1110",
    "Name": "JEUNIEB",
    "Latitude": "5.0641922545034",
    "Longitude": "96.478988464064",
    "Postal": "24263,24262,24264,24265"
  },
  {
    "Code": "1110031",
    "Parent": "1110",
    "Name": "PEULIMBANG",
    "Latitude": "5.0476141594968",
    "Longitude": "96.506304236936",
    "Postal": "24262,24267,24261,24266"
  },
  {
    "Code": "1110040",
    "Parent": "1110",
    "Name": "PEUDADA",
    "Latitude": "5.0516961344966",
    "Longitude": "96.565252975433",
    "Postal": "24269,24263,24266,24262,24261,24265"
  },
  {
    "Code": "1110050",
    "Parent": "1110",
    "Name": "JULI",
    "Latitude": "5.073371476495",
    "Longitude": "96.6703484224",
    "Postal": "24252,24250"
  },
  {
    "Code": "1110060",
    "Parent": "1110",
    "Name": "JEUMPA",
    "Latitude": "5.1454597910159",
    "Longitude": "96.6533149778",
    "Postal": "24269,24262,24261,24264,24251"
  },
  {
    "Code": "1110061",
    "Parent": "1110",
    "Name": "KOTA JUANG",
    "Latitude": "5.1908074790053",
    "Longitude": "96.711805223106",
    "Postal": "24211,24219,24252"
  },
  {
    "Code": "1110062",
    "Parent": "1110",
    "Name": "KUALA",
    "Latitude": "5.2311295860091",
    "Longitude": "96.717409542167",
    "Postal": "24259,24257,24260"
  },
  {
    "Code": "1110070",
    "Parent": "1110",
    "Name": "JANGKA",
    "Latitude": "5.246601813479",
    "Longitude": "96.795551958113",
    "Postal": "24258,24252,24257,24261"
  },
  {
    "Code": "1110080",
    "Parent": "1110",
    "Name": "PEUSANGAN",
    "Latitude": "5.1968387429796",
    "Longitude": "96.773697313621",
    "Postal": "24269,24262,24267,24261,24264"
  },
  {
    "Code": "1110081",
    "Parent": "1110",
    "Name": "PEUSANGAN SELATAN",
    "Latitude": "5.0675971869945",
    "Longitude": "96.766145708893",
    "Postal": "24255,24253,24268"
  },
  {
    "Code": "1110082",
    "Parent": "1110",
    "Name": "PEUSANGAN SIBLAH KRUENG",
    "Latitude": "5.0675186800001",
    "Longitude": "96.802804894494",
    "Postal": "24254,24269"
  },
  {
    "Code": "1110090",
    "Parent": "1110",
    "Name": "MAKMUR",
    "Latitude": "5.1490816070003",
    "Longitude": "96.8519689895",
    "Postal": "24255,24253,24357"
  },
  {
    "Code": "1110100",
    "Parent": "1110",
    "Name": "GANDA PURA",
    "Latitude": "5.2285249384806",
    "Longitude": "96.881843842633",
    "Postal": "24256,24356"
  },
  {
    "Code": "1110101",
    "Parent": "1110",
    "Name": "KUTA BLANG",
    "Latitude": "5.2090378040143",
    "Longitude": "96.830149023264",
    "Postal": "24258,24259,24257,24358"
  },
  {
    "Code": "1111010",
    "Parent": "1111",
    "Name": "SAWANG",
    "Latitude": "5.064220337",
    "Longitude": "96.888314670496",
    "Postal": "24375,24371,24372,24376,24374,24377,24373"
  },
  {
    "Code": "1111020",
    "Parent": "1111",
    "Name": "NISAM",
    "Latitude": "5.1738870044922",
    "Longitude": "97.010665439855",
    "Postal": "24375,24372,24376,24374,24377,24378"
  },
  {
    "Code": "1111021",
    "Parent": "1111",
    "Name": "NISAM ANTARA",
    "Latitude": "5.0132765005008",
    "Longitude": "96.937971735014",
    "Postal": "24361,24379"
  },
  {
    "Code": "1111022",
    "Parent": "1111",
    "Name": "BANDA BARO",
    "Latitude": "5.1840309845145",
    "Longitude": "96.974252960776",
    "Postal": "24362,24376"
  },
  {
    "Code": "1111030",
    "Parent": "1111",
    "Name": "KUTA MAKMUR",
    "Latitude": "5.0940800855003",
    "Longitude": "97.043208827513",
    "Postal": "24371,24377"
  },
  {
    "Code": "1111031",
    "Parent": "1111",
    "Name": "SIMPANG KERAMAT",
    "Latitude": "5.0530397735017",
    "Longitude": "97.136854487029",
    "Postal": "24379,24313"
  },
  {
    "Code": "1111040",
    "Parent": "1111",
    "Name": "SYAMTALIRA BAYU",
    "Latitude": "5.0826884119997",
    "Longitude": "97.176191275993",
    "Postal": "24372,24377,24373,24370"
  },
  {
    "Code": "1111041",
    "Parent": "1111",
    "Name": "GEUREUDONG PASE",
    "Latitude": "4.9646622110014",
    "Longitude": "97.012274614525",
    "Postal": "24379,24373"
  },
  {
    "Code": "1111050",
    "Parent": "1111",
    "Name": "MEURAH MULIA",
    "Latitude": "5.0608658599992",
    "Longitude": "97.190088338488",
    "Postal": "24375,24372,24376,24374,24377,24373"
  },
  {
    "Code": "1111060",
    "Parent": "1111",
    "Name": "MATANGKULI",
    "Latitude": "5.0305478289995",
    "Longitude": "97.27281705299",
    "Postal": "24382,24386,24381,24385"
  },
  {
    "Code": "1111061",
    "Parent": "1111",
    "Name": "PAYA BAKONG",
    "Latitude": "4.9335781274998",
    "Longitude": "97.231562041996",
    "Postal": "24383,24382,24387,24381,24385"
  },
  {
    "Code": "1111062",
    "Parent": "1111",
    "Name": "PIRAK TIMU",
    "Latitude": "4.9889227260118",
    "Longitude": "97.281941595735",
    "Postal": "24379,24384"
  },
  {
    "Code": "1111070",
    "Parent": "1111",
    "Name": "COT GIREK",
    "Latitude": "4.8614614660016",
    "Longitude": "97.349758019529",
    "Postal": "24383,24382,24387,24389,24381,24385,24352"
  },
  {
    "Code": "1111080",
    "Parent": "1111",
    "Name": "TANAH JAMBO AYE",
    "Latitude": "5.1003426325035",
    "Longitude": "97.462168225066",
    "Postal": "24395"
  },
  {
    "Code": "1111081",
    "Parent": "1111",
    "Name": "LANGKAHAN",
    "Latitude": "4.920889115001",
    "Longitude": "97.438009887016",
    "Postal": "24395,24393,24394"
  },
  {
    "Code": "1111090",
    "Parent": "1111",
    "Name": "SEUNUDDON",
    "Latitude": "5.1978756089961",
    "Longitude": "97.406662799921",
    "Postal": "24396,24395,24397,24393"
  },
  {
    "Code": "1111100",
    "Parent": "1111",
    "Name": "BAKTIYA",
    "Latitude": "5.0621298560035",
    "Longitude": "97.408237766568",
    "Postal": "24392"
  },
  {
    "Code": "1111101",
    "Parent": "1111",
    "Name": "BAKTIYA BARAT",
    "Latitude": "5.1291600280252",
    "Longitude": "97.34500527597",
    "Postal": "24396,24393"
  },
  {
    "Code": "1111110",
    "Parent": "1111",
    "Name": "LHOKSUKON",
    "Latitude": "5.0352379300075",
    "Longitude": "97.367902709641",
    "Postal": "24383,24382,24388,24389,24381,24385"
  },
  {
    "Code": "1111120",
    "Parent": "1111",
    "Name": "TANAH LUAS",
    "Latitude": "4.9824712575016",
    "Longitude": "97.124946450032",
    "Postal": "24382,24386,24387,24389,24381,24385"
  },
  {
    "Code": "1111121",
    "Parent": "1111",
    "Name": "NIBONG",
    "Latitude": "5.0447774319999",
    "Longitude": "97.218107371494",
    "Postal": "24382,24388,24385"
  },
  {
    "Code": "1111130",
    "Parent": "1111",
    "Name": "SAMUDERA",
    "Latitude": "5.105144995995",
    "Longitude": "97.230362014904",
    "Postal": "24375,24372,24376,24374,24377,24378"
  },
  {
    "Code": "1111140",
    "Parent": "1111",
    "Name": "SYAMTALIRA ARON",
    "Latitude": "5.1011504384778",
    "Longitude": "97.257021743591",
    "Postal": "24382,24386,24387,24389,24381,24385"
  },
  {
    "Code": "1111150",
    "Parent": "1111",
    "Name": "TANAH PASIR",
    "Latitude": "5.1346025959913",
    "Longitude": "97.264534386829",
    "Postal": "24391,24390"
  },
  {
    "Code": "1111151",
    "Parent": "1111",
    "Name": "LAPANG",
    "Latitude": "5.1442294314664",
    "Longitude": "97.290898415383",
    "Postal": "24397,24391"
  },
  {
    "Code": "1111160",
    "Parent": "1111",
    "Name": "MUARA BATU",
    "Latitude": "5.2394814889991",
    "Longitude": "96.948930915982",
    "Postal": "24355"
  },
  {
    "Code": "1111170",
    "Parent": "1111",
    "Name": "DEWANTARA",
    "Latitude": "5.234289704518",
    "Longitude": "97.007052430834",
    "Postal": "24354"
  },
  {
    "Code": "1112010",
    "Parent": "1112",
    "Name": "MANGGENG",
    "Latitude": "3.6199051260018",
    "Longitude": "96.924296077544",
    "Postal": "23764,23762,23765,23760"
  },
  {
    "Code": "1112011",
    "Parent": "1112",
    "Name": "LEMBAH SABIL",
    "Latitude": "3.6112111935046",
    "Longitude": "96.97437403162",
    "Postal": "23743,23741,23742,23762"
  },
  {
    "Code": "1112020",
    "Parent": "1112",
    "Name": "TANGAN-TANGAN",
    "Latitude": "3.6528119070004",
    "Longitude": "96.972696495509",
    "Postal": "23761,23763,23768"
  },
  {
    "Code": "1112021",
    "Parent": "1112",
    "Name": "SETIA",
    "Latitude": "3.6931818559986",
    "Longitude": "96.972297456961",
    "Postal": "23741,23742,23763"
  },
  {
    "Code": "1112030",
    "Parent": "1112",
    "Name": "BLANG PIDIE",
    "Latitude": "3.7853873599993",
    "Longitude": "96.979416969481",
    "Postal": "23764,23765"
  },
  {
    "Code": "1112031",
    "Parent": "1112",
    "Name": "JEUMPA",
    "Latitude": "3.8514375114999",
    "Longitude": "96.953105928495",
    "Postal": "23743,23769"
  },
  {
    "Code": "1112040",
    "Parent": "1112",
    "Name": "SUSOH",
    "Latitude": "3.7291098110081",
    "Longitude": "96.817997387702",
    "Postal": "23767,23764,23761,23765"
  },
  {
    "Code": "1112050",
    "Parent": "1112",
    "Name": "KUALA BATEE",
    "Latitude": "3.8590116840006",
    "Longitude": "96.860973067013",
    "Postal": "23764,23766"
  },
  {
    "Code": "1112060",
    "Parent": "1112",
    "Name": "BABAH ROT",
    "Latitude": "3.9165767065",
    "Longitude": "96.695067997",
    "Postal": "23767,23765"
  },
  {
    "Code": "1113010",
    "Parent": "1113",
    "Name": "KUTA PANJANG",
    "Latitude": "3.8813662499994",
    "Longitude": "97.222525871488",
    "Postal": "24655,24650"
  },
  {
    "Code": "1113011",
    "Parent": "1113",
    "Name": "BLANG JERANGO",
    "Latitude": "3.9414901900002",
    "Longitude": "97.170354023004",
    "Postal": "24658,24655"
  },
  {
    "Code": "1113020",
    "Parent": "1113",
    "Name": "BLANGKEJEREN",
    "Latitude": "3.9499139994986",
    "Longitude": "97.383416783464",
    "Postal": "24653,24655"
  },
  {
    "Code": "1113021",
    "Parent": "1113",
    "Name": "PUTRI BETUNG",
    "Latitude": "3.7943139690002",
    "Longitude": "97.506220584003",
    "Postal": "24683,24658"
  },
  {
    "Code": "1113022",
    "Parent": "1113",
    "Name": "DABUN GELANG",
    "Latitude": "3.9802324055007",
    "Longitude": "97.512454028017",
    "Postal": "24682,24652"
  },
  {
    "Code": "1113023",
    "Parent": "1113",
    "Name": "BLANG PEGAYON",
    "Latitude": "3.8387404734996",
    "Longitude": "97.265839572988",
    "Postal": "24653"
  },
  {
    "Code": "1113030",
    "Parent": "1113",
    "Name": "PINING",
    "Latitude": "3.9959686465003",
    "Longitude": "97.666923210006",
    "Postal": "24684,24659"
  },
  {
    "Code": "1113040",
    "Parent": "1113",
    "Name": "RIKIT GAIB",
    "Latitude": "4.1287479725003",
    "Longitude": "97.294121462007",
    "Postal": "24654,24651"
  },
  {
    "Code": "1113041",
    "Parent": "1113",
    "Name": "PANTAN CUACA",
    "Latitude": "4.1650625450027",
    "Longitude": "97.180424076061",
    "Postal": "24659,24654"
  },
  {
    "Code": "1113050",
    "Parent": "1113",
    "Name": "TERANGUN",
    "Latitude": "4.0587919035",
    "Longitude": "96.919737119",
    "Postal": "24654,24656"
  },
  {
    "Code": "1113051",
    "Parent": "1113",
    "Name": "TRIPE JAYA",
    "Latitude": "4.1744814140001",
    "Longitude": "96.957374837501",
    "Postal": "24657"
  },
  {
    "Code": "1114010",
    "Parent": "1114",
    "Name": "TAMIANG HULU",
    "Latitude": "4.1617620069982",
    "Longitude": "97.846297118457",
    "Postal": "24472,24478,24479"
  },
  {
    "Code": "1114011",
    "Parent": "1114",
    "Name": "BANDAR PUSAKA",
    "Latitude": "4.2831769150006",
    "Longitude": "97.867854008014",
    "Postal": "24478"
  },
  {
    "Code": "1114020",
    "Parent": "1114",
    "Name": "KEJURUAN MUDA",
    "Latitude": "4.1934653585019",
    "Longitude": "98.020239695542",
    "Postal": "24475,24473,24477"
  },
  {
    "Code": "1114021",
    "Parent": "1114",
    "Name": "TENGGULUN",
    "Latitude": "4.0262390010004",
    "Longitude": "97.918337910511",
    "Postal": "24477"
  },
  {
    "Code": "1114030",
    "Parent": "1114",
    "Name": "RANTAU",
    "Latitude": "4.3096093684997",
    "Longitude": "98.106490614487",
    "Postal": "24472,24476,24474"
  },
  {
    "Code": "1114040",
    "Parent": "1114",
    "Name": "KOTA KUALASIMPANG",
    "Latitude": "4.2863584510613",
    "Longitude": "98.063620208405",
    "Postal": "24475"
  },
  {
    "Code": "1114050",
    "Parent": "1114",
    "Name": "SERUWAY",
    "Latitude": "4.3522978310003",
    "Longitude": "98.202927061003",
    "Postal": "24473"
  },
  {
    "Code": "1114060",
    "Parent": "1114",
    "Name": "BENDAHARA",
    "Latitude": "4.4177201790007",
    "Longitude": "98.181346511015",
    "Postal": "24472,24471,24478,24470"
  },
  {
    "Code": "1114061",
    "Parent": "1114",
    "Name": "BANDA MULIA",
    "Latitude": "4.4437182045066",
    "Longitude": "98.142226477645",
    "Postal": "24472,24476,24474"
  },
  {
    "Code": "1114070",
    "Parent": "1114",
    "Name": "KARANG BARU",
    "Latitude": "4.3367525300007",
    "Longitude": "98.026644838015",
    "Postal": "24476,24471"
  },
  {
    "Code": "1114071",
    "Parent": "1114",
    "Name": "SEKERAK",
    "Latitude": "4.3034481810022",
    "Longitude": "97.915120243548",
    "Postal": "24475,24476"
  },
  {
    "Code": "1114080",
    "Parent": "1114",
    "Name": "MANYAK PAYED",
    "Latitude": "4.4372859939996",
    "Longitude": "98.050261738493",
    "Postal": "24476,24471"
  },
  {
    "Code": "1115010",
    "Parent": "1115",
    "Name": "DARUL MAKMUR",
    "Latitude": "3.954000578",
    "Longitude": "96.573528262499",
    "Postal": "23662,23661"
  },
  {
    "Code": "1115011",
    "Parent": "1115",
    "Name": "TRIPA MAKMUR",
    "Latitude": "3.921681129499",
    "Longitude": "96.411953359975",
    "Postal": "23663"
  },
  {
    "Code": "1115020",
    "Parent": "1115",
    "Name": "KUALA",
    "Latitude": "4.0899732264974",
    "Longitude": "96.29545117443",
    "Postal": "23662,23661"
  },
  {
    "Code": "1115021",
    "Parent": "1115",
    "Name": "KUALA PESISIR",
    "Latitude": "4.0539707245014",
    "Longitude": "96.253009903524",
    "Postal": "23665,23660"
  },
  {
    "Code": "1115022",
    "Parent": "1115",
    "Name": "TADU RAYA",
    "Latitude": "4.0612322995008",
    "Longitude": "96.405705043517",
    "Postal": "23664"
  },
  {
    "Code": "1115030",
    "Parent": "1115",
    "Name": "BEUTONG",
    "Latitude": "4.3772416430001",
    "Longitude": "96.588566757001",
    "Postal": "23672"
  },
  {
    "Code": "1115031",
    "Parent": "1115",
    "Name": "BEUTONG ATEUH BANGGALANG",
    "Latitude": "4.4560029220053",
    "Longitude": "96.526059013102",
    "Postal": "23673"
  },
  {
    "Code": "1115040",
    "Parent": "1115",
    "Name": "SEUNAGAN",
    "Latitude": "4.2294111630047",
    "Longitude": "96.313365525117",
    "Postal": "23671"
  },
  {
    "Code": "1115041",
    "Parent": "1115",
    "Name": "SUKA MAKMUE",
    "Latitude": "4.1817912949987",
    "Longitude": "96.321629447472",
    "Postal": "23674"
  },
  {
    "Code": "1115050",
    "Parent": "1115",
    "Name": "SEUNAGAN TIMUR",
    "Latitude": "4.3341958054992",
    "Longitude": "96.391433847981",
    "Postal": "23673,23670"
  },
  {
    "Code": "1116010",
    "Parent": "1116",
    "Name": "TEUNOM",
    "Latitude": "4.4994064220009",
    "Longitude": "95.854732437517",
    "Postal": "23659,23657,23655,23653"
  },
  {
    "Code": "1116011",
    "Parent": "1116",
    "Name": "PASIE RAYA",
    "Latitude": "4.6134475864985",
    "Longitude": "95.944020864967",
    "Postal": "23641,23653"
  },
  {
    "Code": "1116020",
    "Parent": "1116",
    "Name": "PANGA",
    "Latitude": "4.621760853999",
    "Longitude": "95.82429538548",
    "Postal": "23653"
  },
  {
    "Code": "1116030",
    "Parent": "1116",
    "Name": "KRUENG SABEE",
    "Latitude": "4.7708857045004",
    "Longitude": "95.780532340507",
    "Postal": "23657,23654"
  },
  {
    "Code": "1116040",
    "Parent": "1116",
    "Name": "SETIA BAKTI",
    "Latitude": "4.8371666884994",
    "Longitude": "95.651927664987",
    "Postal": "23655"
  },
  {
    "Code": "1116050",
    "Parent": "1116",
    "Name": "SAMPOINIET",
    "Latitude": "4.9356501819997",
    "Longitude": "95.515250568995",
    "Postal": "23656,23659"
  },
  {
    "Code": "1116051",
    "Parent": "1116",
    "Name": "DARUL HIKMAH",
    "Latitude": "4.9118154604978",
    "Longitude": "95.606423647458",
    "Postal": "23643,23644,23656"
  },
  {
    "Code": "1116060",
    "Parent": "1116",
    "Name": "JAYA",
    "Latitude": "5.1524060009973",
    "Longitude": "95.462829977948",
    "Postal": "23657,23654,23655,23658"
  },
  {
    "Code": "1116061",
    "Parent": "1116",
    "Name": "INDRA JAYA",
    "Latitude": "5.0137028399994",
    "Longitude": "95.464429077987",
    "Postal": "23643,23644,23657"
  },
  {
    "Code": "1117010",
    "Parent": "1117",
    "Name": "TIMANG GAJAH",
    "Latitude": "4.7939933559997",
    "Longitude": "96.772100823495",
    "Postal": "24555,24553"
  },
  {
    "Code": "1117011",
    "Parent": "1117",
    "Name": "GAJAH PUTIH",
    "Latitude": "4.8076647480146",
    "Longitude": "96.743332930297",
    "Postal": "24592,24553"
  },
  {
    "Code": "1117020",
    "Parent": "1117",
    "Name": "PINTU RIME GAYO",
    "Latitude": "4.8976150760001",
    "Longitude": "96.764684905501",
    "Postal": "24593,24554"
  },
  {
    "Code": "1117030",
    "Parent": "1117",
    "Name": "BUKIT",
    "Latitude": "4.7306250935014",
    "Longitude": "96.874653190522",
    "Postal": "24581"
  },
  {
    "Code": "1117040",
    "Parent": "1117",
    "Name": "WIH PESAM",
    "Latitude": "4.726951950498",
    "Longitude": "96.781369717457",
    "Postal": "24591,24580"
  },
  {
    "Code": "1117050",
    "Parent": "1117",
    "Name": "BANDAR",
    "Latitude": "4.7081014375028",
    "Longitude": "96.942911364558",
    "Postal": "24582"
  },
  {
    "Code": "1117051",
    "Parent": "1117",
    "Name": "BENER KELIPAH",
    "Latitude": "4.7731071894875",
    "Longitude": "96.927352732251",
    "Postal": "24586,24583"
  },
  {
    "Code": "1117060",
    "Parent": "1117",
    "Name": "SYIAH UTAMA",
    "Latitude": "4.7449995474999",
    "Longitude": "97.1540612825",
    "Postal": "24585,24586"
  },
  {
    "Code": "1117061",
    "Parent": "1117",
    "Name": "MESIDAH",
    "Latitude": "4.7693449424992",
    "Longitude": "97.057899675482",
    "Postal": "24584"
  },
  {
    "Code": "1117070",
    "Parent": "1117",
    "Name": "PERMATA",
    "Latitude": "4.8237963054953",
    "Longitude": "96.933348421905",
    "Postal": "24583,24585"
  },
  {
    "Code": "1118010",
    "Parent": "1118",
    "Name": "MEUREUDU",
    "Latitude": "5.0864128395003",
    "Longitude": "96.242130100504",
    "Postal": "24188,24182,24186"
  },
  {
    "Code": "1118020",
    "Parent": "1118",
    "Name": "MEURAH DUA",
    "Latitude": "5.2207154459724",
    "Longitude": "96.260677589489",
    "Postal": "24192,24186"
  },
  {
    "Code": "1118030",
    "Parent": "1118",
    "Name": "BANDAR DUA",
    "Latitude": "5.1137658795082",
    "Longitude": "96.307607858154",
    "Postal": "24188,24186"
  },
  {
    "Code": "1118040",
    "Parent": "1118",
    "Name": "JANGKA BUYA",
    "Latitude": "5.2221411880059",
    "Longitude": "96.325631913108",
    "Postal": "24186"
  },
  {
    "Code": "1118050",
    "Parent": "1118",
    "Name": "ULIM",
    "Latitude": "5.1825805245124",
    "Longitude": "96.267624086233",
    "Postal": "24182,24187"
  },
  {
    "Code": "1118060",
    "Parent": "1118",
    "Name": "TRIENGGADENG",
    "Latitude": "5.2172152199922",
    "Longitude": "96.177863687358",
    "Postal": "24181,24185"
  },
  {
    "Code": "1118070",
    "Parent": "1118",
    "Name": "PANTERAJA",
    "Latitude": "5.2577166780647",
    "Longitude": "96.149699250196",
    "Postal": "24191,24185"
  },
  {
    "Code": "1118080",
    "Parent": "1118",
    "Name": "BANDAR BARU",
    "Latitude": "5.1882863429941",
    "Longitude": "96.089033129893",
    "Postal": "24184,24182,24186,24181,24187"
  },
  {
    "Code": "1171010",
    "Parent": "1171",
    "Name": "MEURAXA",
    "Latitude": "5.5543043229907",
    "Longitude": "95.296864186848",
    "Postal": "23231,23232,23233,23234"
  },
  {
    "Code": "1171011",
    "Parent": "1171",
    "Name": "JAYA BARU",
    "Latitude": "5.5359101515687",
    "Longitude": "95.295578123198",
    "Postal": "23235,23236,23237,23230"
  },
  {
    "Code": "1171012",
    "Parent": "1171",
    "Name": "BANDA RAYA",
    "Latitude": "5.5276675175018",
    "Longitude": "95.314958664523",
    "Postal": "23238,23239"
  },
  {
    "Code": "1171020",
    "Parent": "1171",
    "Name": "BAITURRAHMAN",
    "Latitude": "5.5459559949366",
    "Longitude": "95.319311478935",
    "Postal": "23241,23242,23243,23244,23245"
  },
  {
    "Code": "1171021",
    "Parent": "1171",
    "Name": "LUENG BATA",
    "Latitude": "5.5397844543796",
    "Longitude": "95.335113817917",
    "Postal": "23246,23247,23248,23249,23244"
  },
  {
    "Code": "1171030",
    "Parent": "1171",
    "Name": "KUTA ALAM",
    "Latitude": "5.570610443538",
    "Longitude": "95.330621804145",
    "Postal": "23121,23122,23123,23124,23125,23126,23127"
  },
  {
    "Code": "1171031",
    "Parent": "1171",
    "Name": "KUTA RAJA",
    "Latitude": "5.5679014559443",
    "Longitude": "95.315671875516",
    "Postal": "23128,23129,23242"
  },
  {
    "Code": "1171040",
    "Parent": "1171",
    "Name": "SYIAH KUALA",
    "Latitude": "5.5825480110196",
    "Longitude": "95.349536172332",
    "Postal": "23111,23112,23113,23114,23115,23116"
  },
  {
    "Code": "1171041",
    "Parent": "1171",
    "Name": "ULEE KARENG",
    "Latitude": "5.547437527676",
    "Longitude": "95.348171882525",
    "Postal": "23117,23118,23119"
  },
  {
    "Code": "1172010",
    "Parent": "1172",
    "Name": "SUKAJAYA",
    "Latitude": "5.8364707230088",
    "Longitude": "95.317308394147",
    "Postal": "23521,23522,23523,23524,23525,23526,23527,23528,23529"
  },
  {
    "Code": "1172020",
    "Parent": "1172",
    "Name": "SUKAKARYA",
    "Latitude": "5.9451750935045",
    "Longitude": "95.224555480072",
    "Postal": "23512,23514,23515,23516,23518,23517"
  },
  {
    "Code": "1173010",
    "Parent": "1173",
    "Name": "LANGSA TIMUR",
    "Latitude": "4.4775902199937",
    "Longitude": "98.032151584361",
    "Postal": "24451,24456,24411"
  },
  {
    "Code": "1173011",
    "Parent": "1173",
    "Name": "LANGSA LAMA",
    "Latitude": "4.4475992314982",
    "Longitude": "97.961972127959",
    "Postal": "24421,24422,24425,24426,24427,24428,24429,24411,24416"
  },
  {
    "Code": "1173020",
    "Parent": "1173",
    "Name": "LANGSA BARAT",
    "Latitude": "4.5161456210035",
    "Longitude": "98.012785387077",
    "Postal": "24431,24432,24433,24434,24435,24436,24437,24438,24439,24410,24414"
  },
  {
    "Code": "1173021",
    "Parent": "1173",
    "Name": "LANGSA BARO",
    "Latitude": "4.4915595349966",
    "Longitude": "97.923922978925",
    "Postal": "24441,24442,24443,24444,24445,24446,24447,24448,24449,24415"
  },
  {
    "Code": "1173030",
    "Parent": "1173",
    "Name": "LANGSA KOTA",
    "Latitude": "4.4720073444375",
    "Longitude": "97.975195113637",
    "Postal": "24411,24412,24414,24416,24410"
  },
  {
    "Code": "1174010",
    "Parent": "1174",
    "Name": "BLANG MANGAT",
    "Latitude": "5.1269345284984",
    "Longitude": "97.12992151297",
    "Postal": "24375,24372,24376,24374,24377"
  },
  {
    "Code": "1174020",
    "Parent": "1174",
    "Name": "MUARA DUA",
    "Latitude": "5.1623029570349",
    "Longitude": "97.128937709646",
    "Postal": "24352,24351"
  },
  {
    "Code": "1174021",
    "Parent": "1174",
    "Name": "MUARA SATU",
    "Latitude": "5.1991707594669",
    "Longitude": "97.071533159382",
    "Postal": "24379,24353"
  },
  {
    "Code": "1174030",
    "Parent": "1174",
    "Name": "BANDA SAKTI",
    "Latitude": "5.1908627474833",
    "Longitude": "97.132659830194",
    "Postal": "24311,24312,24313,24314,24315,24319,24351"
  },
  {
    "Code": "1175010",
    "Parent": "1175",
    "Name": "SIMPANG KIRI",
    "Latitude": "2.7170371044996",
    "Longitude": "98.002955230479",
    "Postal": "24882,24781"
  },
  {
    "Code": "1175020",
    "Parent": "1175",
    "Name": "PENANGGALAN",
    "Latitude": "2.6439747869986",
    "Longitude": "98.050489279453",
    "Postal": "24881,24780"
  },
  {
    "Code": "1175030",
    "Parent": "1175",
    "Name": "RUNDENG",
    "Latitude": "2.7016292004992",
    "Longitude": "97.852649391972",
    "Postal": "24884,24779"
  },
  {
    "Code": "1175040",
    "Parent": "1175",
    "Name": "SULTAN DAULAT",
    "Latitude": "2.8510614990003",
    "Longitude": "97.937012055507",
    "Postal": "24883,24783"
  },
  {
    "Code": "1175050",
    "Parent": "1175",
    "Name": "LONGKIB",
    "Latitude": "2.577678794",
    "Longitude": "97.891430587996",
    "Postal": "24885,24782"
  },
  {
    "Code": "1201060",
    "Parent": "1201",
    "Name": "IDANO GAWO",
    "Latitude": "1.0528066669998",
    "Longitude": "97.779495555474",
    "Postal": "22872"
  },
  {
    "Code": "1201061",
    "Parent": "1201",
    "Name": "BAWOLATO",
    "Latitude": "0.98221557450008",
    "Longitude": "97.868879785006",
    "Postal": "22876,22873"
  },
  {
    "Code": "1201062",
    "Parent": "1201",
    "Name": "ULUGAWO",
    "Latitude": "0.98997694399969",
    "Longitude": "97.72906583297",
    "Postal": "22876,22877,22861"
  },
  {
    "Code": "1201070",
    "Parent": "1201",
    "Name": "GIDO",
    "Latitude": "1.1196924160002",
    "Longitude": "97.731545277511",
    "Postal": "22871,22874"
  },
  {
    "Code": "1201071",
    "Parent": "1201",
    "Name": "SOGAEADU",
    "Latitude": "1.0996512654997",
    "Longitude": "97.723951773469",
    "Postal": "22871"
  },
  {
    "Code": "1201081",
    "Parent": "1201",
    "Name": "MA U",
    "Latitude": "1.0417980555004",
    "Longitude": "97.63876055553",
    "Postal": "22855"
  },
  {
    "Code": "1201082",
    "Parent": "1201",
    "Name": "SOMOLO - MOLO",
    "Latitude": "1.0345716665007",
    "Longitude": "97.666970278059",
    "Postal": "22878,22871"
  },
  {
    "Code": "1201130",
    "Parent": "1201",
    "Name": "HILIDUHO",
    "Latitude": "1.235844750001",
    "Longitude": "97.533354177583",
    "Postal": "22854,22853,22852"
  },
  {
    "Code": "1201131",
    "Parent": "1201",
    "Name": "HILI SERANGKAI",
    "Latitude": "1.1492327360004",
    "Longitude": "97.602394492537",
    "Postal": "22850"
  },
  {
    "Code": "1201132",
    "Parent": "1201",
    "Name": "BOTOMUZOI",
    "Latitude": "1.1701871720002",
    "Longitude": "97.542504444521",
    "Postal": "22859,22855,22815"
  },
  {
    "Code": "1202010",
    "Parent": "1202",
    "Name": "BATAHAN",
    "Latitude": "0.3667576760001",
    "Longitude": "99.235665591502",
    "Postal": "22988"
  },
  {
    "Code": "1202011",
    "Parent": "1202",
    "Name": "SINUNUKAN",
    "Latitude": "0.47292047350009",
    "Longitude": "99.265868089512",
    "Postal": "22986"
  },
  {
    "Code": "1202020",
    "Parent": "1202",
    "Name": "BATANG NATAL",
    "Latitude": "0.66390662450005",
    "Longitude": "99.434211333999",
    "Postal": "22983"
  },
  {
    "Code": "1202021",
    "Parent": "1202",
    "Name": "LINGGA BAYU",
    "Latitude": "0.59431656950006",
    "Longitude": "99.280089588497",
    "Postal": "22984,22982"
  },
  {
    "Code": "1202022",
    "Parent": "1202",
    "Name": "RANTO BAEK",
    "Latitude": "0.51718005049997",
    "Longitude": "99.373287150497",
    "Postal": "22984"
  },
  {
    "Code": "1202030",
    "Parent": "1202",
    "Name": "KOTANOPAN",
    "Latitude": "0.61573732799998",
    "Longitude": "99.722742951983",
    "Postal": "22994"
  },
  {
    "Code": "1202031",
    "Parent": "1202",
    "Name": "ULU PUNGKUT",
    "Latitude": "0.5351082775001",
    "Longitude": "99.780575094501",
    "Postal": "22964,22999"
  },
  {
    "Code": "1202032",
    "Parent": "1202",
    "Name": "TAMBANGAN",
    "Latitude": "0.68902180949995",
    "Longitude": "99.655017063987",
    "Postal": "22963,22996"
  },
  {
    "Code": "1202033",
    "Parent": "1202",
    "Name": "LEMBAH SORIK MARAPI",
    "Latitude": "0.74066970900011",
    "Longitude": "99.602162674497",
    "Postal": "22961,22993"
  },
  {
    "Code": "1202034",
    "Parent": "1202",
    "Name": "PUNCAK SORIK MARAPI",
    "Latitude": "0.68804708050004",
    "Longitude": "99.575942875505",
    "Postal": "22995"
  },
  {
    "Code": "1202040",
    "Parent": "1202",
    "Name": "MUARA SIPONGI",
    "Latitude": "0.61639798750026",
    "Longitude": "99.88852374554",
    "Postal": "22998"
  },
  {
    "Code": "1202041",
    "Parent": "1202",
    "Name": "PAKANTAN",
    "Latitude": "0.5250157070001",
    "Longitude": "99.895464186005",
    "Postal": "22997"
  },
  {
    "Code": "1202050",
    "Parent": "1202",
    "Name": "PANYABUNGAN",
    "Latitude": "0.84802033200011",
    "Longitude": "99.62557230901",
    "Postal": "22915,22919"
  },
  {
    "Code": "1202051",
    "Parent": "1202",
    "Name": "PANYABUNGAN SELATAN",
    "Latitude": "0.74852332750004",
    "Longitude": "99.532429944491",
    "Postal": "22952"
  },
  {
    "Code": "1202052",
    "Parent": "1202",
    "Name": "PANYABUNGAN BARAT",
    "Latitude": "0.81699577049999",
    "Longitude": "99.496438561495",
    "Postal": "22953,22911"
  },
  {
    "Code": "1202053",
    "Parent": "1202",
    "Name": "PANYABUNGAN UTARA",
    "Latitude": "0.93242816399995",
    "Longitude": "99.556595510989",
    "Postal": "22954,22979"
  },
  {
    "Code": "1202054",
    "Parent": "1202",
    "Name": "PANYABUNGAN TIMUR",
    "Latitude": "0.79458457500008",
    "Longitude": "99.717165007005",
    "Postal": "22952,22955,22912"
  },
  {
    "Code": "1202055",
    "Parent": "1202",
    "Name": "HUTA BARGOT",
    "Latitude": "0.87459489350032",
    "Longitude": "99.457382075523",
    "Postal": "22978"
  },
  {
    "Code": "1202060",
    "Parent": "1202",
    "Name": "NATAL",
    "Latitude": "0.68654872150009",
    "Longitude": "99.220282073006",
    "Postal": "22987"
  },
  {
    "Code": "1202070",
    "Parent": "1202",
    "Name": "MUARA BATANG GADIS",
    "Latitude": "1.0687935805",
    "Longitude": "99.115697469498",
    "Postal": "22989"
  },
  {
    "Code": "1202080",
    "Parent": "1202",
    "Name": "SIABU",
    "Latitude": "1.0339935319998",
    "Longitude": "99.446659123477",
    "Postal": "22976"
  },
  {
    "Code": "1202081",
    "Parent": "1202",
    "Name": "BUKIT MALINTANG",
    "Latitude": "0.97999329449984",
    "Longitude": "99.537873536983",
    "Postal": "22977"
  },
  {
    "Code": "1202082",
    "Parent": "1202",
    "Name": "NAGA JUANG",
    "Latitude": "0.9268011425002",
    "Longitude": "99.446019650017",
    "Postal": "22975"
  },
  {
    "Code": "1203010",
    "Parent": "1203",
    "Name": "BATANG ANGKOLA",
    "Latitude": "1.2239102525",
    "Longitude": "99.227849853993",
    "Postal": "22772,22773"
  },
  {
    "Code": "1203011",
    "Parent": "1203",
    "Name": "SAYUR MATINGGI",
    "Latitude": "1.1291873335002",
    "Longitude": "99.313765063516",
    "Postal": "22774"
  },
  {
    "Code": "1203012",
    "Parent": "1203",
    "Name": "TANO TOMBANGAN ANGKOLA",
    "Latitude": "1.047510366",
    "Longitude": "99.3702834415",
    "Postal": "22775"
  },
  {
    "Code": "1203070",
    "Parent": "1203",
    "Name": "ANGKOLA TIMUR",
    "Latitude": "1.4394336605001",
    "Longitude": "99.324886248504",
    "Postal": "22733"
  },
  {
    "Code": "1203080",
    "Parent": "1203",
    "Name": "ANGKOLA SELATAN",
    "Latitude": "1.3231103440002",
    "Longitude": "99.168088828509",
    "Postal": "22732"
  },
  {
    "Code": "1203090",
    "Parent": "1203",
    "Name": "ANGKOLA  BARAT",
    "Latitude": "1.4175863840005",
    "Longitude": "99.151191148033",
    "Postal": "22736,22735"
  },
  {
    "Code": "1203091",
    "Parent": "1203",
    "Name": "ANGKOLA SANGKUNUR",
    "Latitude": "1.3592963034996",
    "Longitude": "99.023692611965",
    "Postal": "22737,22734"
  },
  {
    "Code": "1203100",
    "Parent": "1203",
    "Name": "BATANG TORU",
    "Latitude": "1.5609654710003",
    "Longitude": "99.089386012514",
    "Postal": "22732,22738"
  },
  {
    "Code": "1203101",
    "Parent": "1203",
    "Name": "MARANCAR",
    "Latitude": "1.518921849501",
    "Longitude": "99.162944999062",
    "Postal": "22741,22742,22737"
  },
  {
    "Code": "1203102",
    "Parent": "1203",
    "Name": "MUARA BATANG TORU",
    "Latitude": "1.3770058749999",
    "Longitude": "98.897539611489",
    "Postal": "22739,22736"
  },
  {
    "Code": "1203110",
    "Parent": "1203",
    "Name": "SIPIROK",
    "Latitude": "1.6046782810001",
    "Longitude": "99.316011989501",
    "Postal": "22741,22742,22739"
  },
  {
    "Code": "1203120",
    "Parent": "1203",
    "Name": "ARSE",
    "Latitude": "1.702966981",
    "Longitude": "99.362415086499",
    "Postal": "22747,22748"
  },
  {
    "Code": "1203160",
    "Parent": "1203",
    "Name": "SAIPAR DOLOK HOLE",
    "Latitude": "1.8260053645001",
    "Longitude": "99.422113733499",
    "Postal": "22757,22759"
  },
  {
    "Code": "1203161",
    "Parent": "1203",
    "Name": "AEK BILAH",
    "Latitude": "2.0022806254997",
    "Longitude": "99.470130866487",
    "Postal": "22759,22758"
  },
  {
    "Code": "1204010",
    "Parent": "1204",
    "Name": "PINANG SORI",
    "Latitude": "1.5480243345",
    "Longitude": "98.859366040491",
    "Postal": "22653"
  },
  {
    "Code": "1204011",
    "Parent": "1204",
    "Name": "BADIRI",
    "Latitude": "1.5808978040001",
    "Longitude": "98.840956330502",
    "Postal": "22657,22654"
  },
  {
    "Code": "1204020",
    "Parent": "1204",
    "Name": "SIBABANGUN",
    "Latitude": "1.5889610385003",
    "Longitude": "99.002212375007",
    "Postal": "22656,22655"
  },
  {
    "Code": "1204021",
    "Parent": "1204",
    "Name": "LUMUT",
    "Latitude": "1.551140701",
    "Longitude": "98.875569475494",
    "Postal": "22654,22652"
  },
  {
    "Code": "1204022",
    "Parent": "1204",
    "Name": "SUKABANGUN",
    "Latitude": "1.4592818180017",
    "Longitude": "98.940116904112",
    "Postal": "22655,22656"
  },
  {
    "Code": "1204030",
    "Parent": "1204",
    "Name": "PANDAN",
    "Latitude": "1.6860220295025",
    "Longitude": "98.839992140637",
    "Postal": "22611,22613,22614,22615,22619,22616"
  },
  {
    "Code": "1204031",
    "Parent": "1204",
    "Name": "TUKKA",
    "Latitude": "1.7046830910004",
    "Longitude": "98.911243869524",
    "Postal": "22631,22634,22636,22638,22617,22618"
  },
  {
    "Code": "1204032",
    "Parent": "1204",
    "Name": "SARUDIK",
    "Latitude": "1.7324380440008",
    "Longitude": "98.843695146048",
    "Postal": "22621,22622,22623,22624,22625,22611,22616"
  },
  {
    "Code": "1204040",
    "Parent": "1204",
    "Name": "TAPIAN NAULI",
    "Latitude": "1.7308609170001",
    "Longitude": "98.622400128001",
    "Postal": "22641,22642,22643,22644,22645,22646,22647,22648,22649,22618"
  },
  {
    "Code": "1204041",
    "Parent": "1204",
    "Name": "SITAHUIS",
    "Latitude": "1.8079313889985",
    "Longitude": "98.825146229907",
    "Postal": "22566,22611"
  },
  {
    "Code": "1204050",
    "Parent": "1204",
    "Name": "KOLANG",
    "Latitude": "1.8662215345003",
    "Longitude": "98.695645225019",
    "Postal": "22562"
  },
  {
    "Code": "1204060",
    "Parent": "1204",
    "Name": "SORKAM",
    "Latitude": "1.9171243324997",
    "Longitude": "98.657475605979",
    "Postal": "22566,22563,22560"
  },
  {
    "Code": "1204061",
    "Parent": "1204",
    "Name": "SORKAM BARAT",
    "Latitude": "1.9055681729985",
    "Longitude": "98.565728843426",
    "Postal": "22571,22561"
  },
  {
    "Code": "1204062",
    "Parent": "1204",
    "Name": "PASARIBU TOBING",
    "Latitude": "1.9902791274985",
    "Longitude": "98.622054802426",
    "Postal": "22572,22563"
  },
  {
    "Code": "1204070",
    "Parent": "1204",
    "Name": "BARUS",
    "Latitude": "2.0302086305019",
    "Longitude": "98.4121796551",
    "Postal": "22564"
  },
  {
    "Code": "1204071",
    "Parent": "1204",
    "Name": "SOSOR GADONG",
    "Latitude": "2.0071863390001",
    "Longitude": "98.519245349003",
    "Postal": "22573,22568"
  },
  {
    "Code": "1204072",
    "Parent": "1204",
    "Name": "ANDAM DEWI",
    "Latitude": "2.0588134735025",
    "Longitude": "98.402457001115",
    "Postal": "22575,22651"
  },
  {
    "Code": "1204073",
    "Parent": "1204",
    "Name": "BARUS UTARA",
    "Latitude": "2.0596854395014",
    "Longitude": "98.438304014064",
    "Postal": "22574,22567"
  },
  {
    "Code": "1204080",
    "Parent": "1204",
    "Name": "MANDUAMAS",
    "Latitude": "2.1696074520003",
    "Longitude": "98.22817493501",
    "Postal": "22565"
  },
  {
    "Code": "1204081",
    "Parent": "1204",
    "Name": "SIRANDORUNG",
    "Latitude": "2.1010114225",
    "Longitude": "98.330718469496",
    "Postal": "22576,22566"
  },
  {
    "Code": "1205030",
    "Parent": "1205",
    "Name": "PARMONANGAN",
    "Latitude": "2.0573718360004",
    "Longitude": "98.801347604018",
    "Postal": "22457,22454,22455,22453"
  },
  {
    "Code": "1205040",
    "Parent": "1205",
    "Name": "ADIANKOTING",
    "Latitude": "1.875740782",
    "Longitude": "98.889995246999",
    "Postal": "22461"
  },
  {
    "Code": "1205050",
    "Parent": "1205",
    "Name": "SIPOHOLON",
    "Latitude": "2.0655419909994",
    "Longitude": "98.918643589468",
    "Postal": "22457,22452"
  },
  {
    "Code": "1205060",
    "Parent": "1205",
    "Name": "TARUTUNG",
    "Latitude": "2.0197712000001",
    "Longitude": "98.979958926505",
    "Postal": "22411,22412,22413,22414,22415,22416,22452"
  },
  {
    "Code": "1205061",
    "Parent": "1205",
    "Name": "SIATAS BARITA",
    "Latitude": "2.0059680425",
    "Longitude": "99.049055223497",
    "Postal": "22427,22428,22429,22417,22419"
  },
  {
    "Code": "1205070",
    "Parent": "1205",
    "Name": "PAHAE JULU",
    "Latitude": "1.8883509445007",
    "Longitude": "99.061790404532",
    "Postal": "22463"
  },
  {
    "Code": "1205080",
    "Parent": "1205",
    "Name": "PAHAE JAE",
    "Latitude": "1.8233712104997",
    "Longitude": "99.122987087483",
    "Postal": "22465"
  },
  {
    "Code": "1205081",
    "Parent": "1205",
    "Name": "PURBATUA",
    "Latitude": "1.7186933734999",
    "Longitude": "99.065037810992",
    "Postal": "22467,22464"
  },
  {
    "Code": "1205082",
    "Parent": "1205",
    "Name": "SIMANGUMBAN",
    "Latitude": "1.7616281644998",
    "Longitude": "99.218555385992",
    "Postal": "22466"
  },
  {
    "Code": "1205090",
    "Parent": "1205",
    "Name": "PANGARIBUAN",
    "Latitude": "1.9718426289999",
    "Longitude": "99.209164404993",
    "Postal": "22472,22474"
  },
  {
    "Code": "1205100",
    "Parent": "1205",
    "Name": "GAROGA",
    "Latitude": "2.0257616065001",
    "Longitude": "99.343680844006",
    "Postal": "22473"
  },
  {
    "Code": "1205110",
    "Parent": "1205",
    "Name": "SIPAHUTAR",
    "Latitude": "2.12734236",
    "Longitude": "99.150513258997",
    "Postal": "22471"
  },
  {
    "Code": "1205120",
    "Parent": "1205",
    "Name": "SIBORONGBORONG",
    "Latitude": "2.1941517670002",
    "Longitude": "99.044029621502",
    "Postal": "22474"
  },
  {
    "Code": "1205130",
    "Parent": "1205",
    "Name": "PAGARAN",
    "Latitude": "2.1839351755001",
    "Longitude": "98.872803984002",
    "Postal": "22458"
  },
  {
    "Code": "1205180",
    "Parent": "1205",
    "Name": "MUARA",
    "Latitude": "2.3180233240002",
    "Longitude": "98.930940279009",
    "Postal": "22476"
  },
  {
    "Code": "1206030",
    "Parent": "1206",
    "Name": "BALIGE",
    "Latitude": "2.3072397850006",
    "Longitude": "99.080927766527",
    "Postal": "22311,22312,22313,22314,22315,22316,22319"
  },
  {
    "Code": "1206031",
    "Parent": "1206",
    "Name": "TAMPAHAN",
    "Latitude": "2.308453996497",
    "Longitude": "99.015075289864",
    "Postal": "22352,22312"
  },
  {
    "Code": "1206040",
    "Parent": "1206",
    "Name": "LAGUBOTI",
    "Latitude": "2.3289226924998",
    "Longitude": "99.163328922987",
    "Postal": "22381,22385"
  },
  {
    "Code": "1206050",
    "Parent": "1206",
    "Name": "HABINSARAN",
    "Latitude": "2.3571095950001",
    "Longitude": "99.3401903615",
    "Postal": "22383,22385"
  },
  {
    "Code": "1206051",
    "Parent": "1206",
    "Name": "BORBOR",
    "Latitude": "2.2084481339997",
    "Longitude": "99.276301663983",
    "Postal": "22354,22383"
  },
  {
    "Code": "1206052",
    "Parent": "1206",
    "Name": "NASSAU",
    "Latitude": "2.3364996314988",
    "Longitude": "99.483598137953",
    "Postal": "22355,22383"
  },
  {
    "Code": "1206060",
    "Parent": "1206",
    "Name": "SILAEN",
    "Latitude": "2.4201684175009",
    "Longitude": "99.282431813037",
    "Postal": "22386,22382"
  },
  {
    "Code": "1206061",
    "Parent": "1206",
    "Name": "SIGUMPAR",
    "Latitude": "2.390074822994",
    "Longitude": "99.179668455255",
    "Postal": "22353,22380"
  },
  {
    "Code": "1206070",
    "Parent": "1206",
    "Name": "PORSEA",
    "Latitude": "2.4777914850006",
    "Longitude": "99.131211000027",
    "Postal": "22384"
  },
  {
    "Code": "1206071",
    "Parent": "1206",
    "Name": "PINTU POHAN MERANTI",
    "Latitude": "2.5404452155008",
    "Longitude": "99.337408039028",
    "Postal": "22388,22384"
  },
  {
    "Code": "1206072",
    "Parent": "1206",
    "Name": "SIANTAR NARUMONDA",
    "Latitude": "2.4578625149953",
    "Longitude": "99.214665653808",
    "Postal": "22356,22384"
  },
  {
    "Code": "1206073",
    "Parent": "1206",
    "Name": "PARMAKSIAN",
    "Latitude": "2.4885098119974",
    "Longitude": "99.1929880799",
    "Postal": "22357,22384"
  },
  {
    "Code": "1206080",
    "Parent": "1206",
    "Name": "LUMBAN JULU",
    "Latitude": "2.5675075815009",
    "Longitude": "99.02975518253",
    "Postal": "22386,22382,22388"
  },
  {
    "Code": "1206081",
    "Parent": "1206",
    "Name": "ULUAN",
    "Latitude": "2.452006906496",
    "Longitude": "99.081285725829",
    "Postal": "22383,22381,22385"
  },
  {
    "Code": "1206082",
    "Parent": "1206",
    "Name": "AJIBATA",
    "Latitude": "2.6076895459998",
    "Longitude": "98.94893428449",
    "Postal": "22389,22382,22386"
  },
  {
    "Code": "1206083",
    "Parent": "1206",
    "Name": "BONATUA LUNASI",
    "Latitude": "2.5334285810082",
    "Longitude": "99.132577020322",
    "Postal": "22387"
  },
  {
    "Code": "1207050",
    "Parent": "1207",
    "Name": "BILAH HULU",
    "Latitude": "1.9439998120001",
    "Longitude": "99.933671994005",
    "Postal": "21462,21451"
  },
  {
    "Code": "1207070",
    "Parent": "1207",
    "Name": "PANGKATAN",
    "Latitude": "2.1898157575003",
    "Longitude": "100.02254657551",
    "Postal": "21477,21462"
  },
  {
    "Code": "1207080",
    "Parent": "1207",
    "Name": "BILAH BARAT",
    "Latitude": "2.0664191190002",
    "Longitude": "99.812469673006",
    "Postal": "21459,21411,21415"
  },
  {
    "Code": "1207130",
    "Parent": "1207",
    "Name": "BILAH HILIR",
    "Latitude": "2.3251726869994",
    "Longitude": "100.04809705547",
    "Postal": "21471"
  },
  {
    "Code": "1207140",
    "Parent": "1207",
    "Name": "PANAI HULU",
    "Latitude": "2.3979088445",
    "Longitude": "100.113138862",
    "Postal": "21476,21470"
  },
  {
    "Code": "1207150",
    "Parent": "1207",
    "Name": "PANAI TENGAH",
    "Latitude": "2.3671543949996",
    "Longitude": "100.25014597698",
    "Postal": "21472"
  },
  {
    "Code": "1207160",
    "Parent": "1207",
    "Name": "PANAI HILIR",
    "Latitude": "2.6397688829989",
    "Longitude": "100.18573766346",
    "Postal": "21473"
  },
  {
    "Code": "1207210",
    "Parent": "1207",
    "Name": "RANTAU SELATAN",
    "Latitude": "2.0666471089999",
    "Longitude": "99.834110834496",
    "Postal": "21421,21422,21423,21424,21425,21426,21427,21428,21429"
  },
  {
    "Code": "1207220",
    "Parent": "1207",
    "Name": "RANTAU UTARA",
    "Latitude": "2.0993296765021",
    "Longitude": "99.828757104106",
    "Postal": "21411,21412,21413,21414,21416,21417,21418,21419"
  },
  {
    "Code": "1208010",
    "Parent": "1208",
    "Name": "BANDAR PASIR MANDOGE",
    "Latitude": "2.7304301309998",
    "Longitude": "99.267190639994",
    "Postal": "21262,21266"
  },
  {
    "Code": "1208020",
    "Parent": "1208",
    "Name": "BANDAR PULAU",
    "Latitude": "2.6638101245001",
    "Longitude": "99.399297778001",
    "Postal": "21274,21275"
  },
  {
    "Code": "1208021",
    "Parent": "1208",
    "Name": "AEK SONGSONGAN",
    "Latitude": "2.6026805835011",
    "Longitude": "99.38264945854",
    "Postal": "21293,21274"
  },
  {
    "Code": "1208022",
    "Parent": "1208",
    "Name": "RAHUNING",
    "Latitude": "2.723109176999",
    "Longitude": "99.491135142965",
    "Postal": "21276"
  },
  {
    "Code": "1208030",
    "Parent": "1208",
    "Name": "PULAU RAKYAT",
    "Latitude": "2.7349294964989",
    "Longitude": "99.685251299456",
    "Postal": "21273,21278"
  },
  {
    "Code": "1208031",
    "Parent": "1208",
    "Name": "AEK KUASAN",
    "Latitude": "2.6757385109998",
    "Longitude": "99.691385799992",
    "Postal": "21275,21273"
  },
  {
    "Code": "1208032",
    "Parent": "1208",
    "Name": "AEK LEDONG",
    "Latitude": "2.6169047519971",
    "Longitude": "99.63424344439",
    "Postal": "21276,21277"
  },
  {
    "Code": "1208040",
    "Parent": "1208",
    "Name": "SEI KEPAYANG",
    "Latitude": "2.8168312735",
    "Longitude": "99.868338152002",
    "Postal": "21381"
  },
  {
    "Code": "1208041",
    "Parent": "1208",
    "Name": "SEI KEPAYANG BARAT",
    "Latitude": "2.9594885040033",
    "Longitude": "99.859766135603",
    "Postal": "21382"
  },
  {
    "Code": "1208042",
    "Parent": "1208",
    "Name": "SEI KEPAYANG TIMUR",
    "Latitude": "2.9558536520016",
    "Longitude": "99.909495673053",
    "Postal": "21383"
  },
  {
    "Code": "1208050",
    "Parent": "1208",
    "Name": "TANJUNG BALAI",
    "Latitude": "3.0414378414996",
    "Longitude": "99.812657783984",
    "Postal": "21345,21351,21352"
  },
  {
    "Code": "1208060",
    "Parent": "1208",
    "Name": "SIMPANG EMPAT",
    "Latitude": "2.9064840599998",
    "Longitude": "99.758060282496",
    "Postal": "21345,21271"
  },
  {
    "Code": "1208061",
    "Parent": "1208",
    "Name": "TELUK DALAM",
    "Latitude": "2.8155031805014",
    "Longitude": "99.66692040805",
    "Postal": "21277,21270"
  },
  {
    "Code": "1208070",
    "Parent": "1208",
    "Name": "AIR BATU",
    "Latitude": "2.8739716099998",
    "Longitude": "99.632743545993",
    "Postal": "21272,21345"
  },
  {
    "Code": "1208071",
    "Parent": "1208",
    "Name": "SEI DADAP",
    "Latitude": "2.9389134315033",
    "Longitude": "99.643438155613",
    "Postal": "21291,21279"
  },
  {
    "Code": "1208080",
    "Parent": "1208",
    "Name": "BUNTU PANE",
    "Latitude": "2.859333233",
    "Longitude": "99.500158544997",
    "Postal": "21261"
  },
  {
    "Code": "1208081",
    "Parent": "1208",
    "Name": "TINGGI RAJA",
    "Latitude": "2.8376348705006",
    "Longitude": "99.53798190902",
    "Postal": "21292,21261"
  },
  {
    "Code": "1208082",
    "Parent": "1208",
    "Name": "SETIA JANJI",
    "Latitude": "2.9349109350007",
    "Longitude": "99.488497819524",
    "Postal": "21268,21265,21260"
  },
  {
    "Code": "1208090",
    "Parent": "1208",
    "Name": "MERANTI",
    "Latitude": "3.0833079514906",
    "Longitude": "99.619143529192",
    "Postal": "21264"
  },
  {
    "Code": "1208091",
    "Parent": "1208",
    "Name": "PULO BANDRING",
    "Latitude": "2.9942813894975",
    "Longitude": "99.556464197915",
    "Postal": "21262,21266,21265"
  },
  {
    "Code": "1208092",
    "Parent": "1208",
    "Name": "RAWANG PANCA ARGA",
    "Latitude": "3.0592030105018",
    "Longitude": "99.650123404055",
    "Postal": "21267,21266"
  },
  {
    "Code": "1208100",
    "Parent": "1208",
    "Name": "AIR JOMAN",
    "Latitude": "3.0213187515025",
    "Longitude": "99.717192817081",
    "Postal": "21263"
  },
  {
    "Code": "1208101",
    "Parent": "1208",
    "Name": "SILAU LAUT",
    "Latitude": "3.0926284995001",
    "Longitude": "99.743789691995",
    "Postal": "21268,21265,21267"
  },
  {
    "Code": "1208160",
    "Parent": "1208",
    "Name": "KISARAN BARAT",
    "Latitude": "2.9856804720095",
    "Longitude": "99.598031254809",
    "Postal": "21211,21212,21213,21214,21215,21216,21217,21218"
  },
  {
    "Code": "1208170",
    "Parent": "1208",
    "Name": "KISARAN TIMUR",
    "Latitude": "2.9860927360023",
    "Longitude": "99.644627940067",
    "Postal": "21221,21222,21223,21224,21225,21226,21227,21228,21229,21219"
  },
  {
    "Code": "1209010",
    "Parent": "1209",
    "Name": "SILIMAKUTA",
    "Latitude": "2.9429558110005",
    "Longitude": "98.643410663515",
    "Postal": "21167,21169"
  },
  {
    "Code": "1209011",
    "Parent": "1209",
    "Name": "PEMATANG SILIMAHUTA",
    "Latitude": "2.9488369685023",
    "Longitude": "98.570474146076",
    "Postal": "21195,21157,21167"
  },
  {
    "Code": "1209020",
    "Parent": "1209",
    "Name": "PURBA",
    "Latitude": "2.9069935070004",
    "Longitude": "98.706408870512",
    "Postal": "21169,21195,21165,21157,21166"
  },
  {
    "Code": "1209021",
    "Parent": "1209",
    "Name": "HARANGGAOL HORISON",
    "Latitude": "2.8588208220037",
    "Longitude": "98.684687545624",
    "Postal": "21166,21177"
  },
  {
    "Code": "1209040",
    "Parent": "1209",
    "Name": "SIDAMANIK",
    "Latitude": "2.8408205710011",
    "Longitude": "98.952247561035",
    "Postal": "21171"
  },
  {
    "Code": "1209041",
    "Parent": "1209",
    "Name": "PEMATANG SIDAMANIK",
    "Latitude": "2.7924046605012",
    "Longitude": "98.894479092542",
    "Postal": "21195,21175,21188"
  },
  {
    "Code": "1209050",
    "Parent": "1209",
    "Name": "GIRSANG SIPANGAN BOLON",
    "Latitude": "2.6790009199987",
    "Longitude": "98.967791749951",
    "Postal": "21174"
  },
  {
    "Code": "1209060",
    "Parent": "1209",
    "Name": "TANAH JAWA",
    "Latitude": "2.8747990224997",
    "Longitude": "99.19272569649",
    "Postal": "21181"
  },
  {
    "Code": "1209061",
    "Parent": "1209",
    "Name": "HATONDUHAN",
    "Latitude": "2.7373680514995",
    "Longitude": "99.138549846981",
    "Postal": "21191,21178"
  },
  {
    "Code": "1209070",
    "Parent": "1209",
    "Name": "DOLOK PANRIBUAN",
    "Latitude": "2.7829890000009",
    "Longitude": "99.031939920035",
    "Postal": "21173"
  },
  {
    "Code": "1209080",
    "Parent": "1209",
    "Name": "JORLANG HATARAN",
    "Latitude": "2.8148809949976",
    "Longitude": "99.014301539912",
    "Postal": "21173,21172,21195"
  },
  {
    "Code": "1209090",
    "Parent": "1209",
    "Name": "PANEI",
    "Latitude": "2.9004237944944",
    "Longitude": "98.940968540805",
    "Postal": "21161,21167,21157"
  },
  {
    "Code": "1209091",
    "Parent": "1209",
    "Name": "PANOMBEAN PANEI",
    "Latitude": "2.9539887949983",
    "Longitude": "98.98620687194",
    "Postal": "21195,21165"
  },
  {
    "Code": "1209100",
    "Parent": "1209",
    "Name": "RAYA",
    "Latitude": "2.9794171609992",
    "Longitude": "98.885464558974",
    "Postal": "21162,21157,21160"
  },
  {
    "Code": "1209101",
    "Parent": "1209",
    "Name": "DOLOG MASAGAL",
    "Latitude": null,
    "Longitude": null,
    "Postal": "21164"
  },
  {
    "Code": "1209110",
    "Parent": "1209",
    "Name": "DOLOK SILAU",
    "Latitude": "3.0874941299999",
    "Longitude": "98.692380579996",
    "Postal": "21168"
  },
  {
    "Code": "1209120",
    "Parent": "1209",
    "Name": "SILAU KAHEAN",
    "Latitude": "3.1629921570016",
    "Longitude": "98.868031842551",
    "Postal": "21157"
  },
  {
    "Code": "1209130",
    "Parent": "1209",
    "Name": "RAYA KAHEAN",
    "Latitude": "3.1132272755014",
    "Longitude": "98.914350480542",
    "Postal": "21195,21156"
  },
  {
    "Code": "1209140",
    "Parent": "1209",
    "Name": "TAPIAN DOLOK",
    "Latitude": "3.0708194220018",
    "Longitude": "99.056689608065",
    "Postal": "21195,21154"
  },
  {
    "Code": "1209150",
    "Parent": "1209",
    "Name": "DOLOK BATU NANGGAR",
    "Latitude": "3.118892677",
    "Longitude": "99.159233894499",
    "Postal": "21155"
  },
  {
    "Code": "1209160",
    "Parent": "1209",
    "Name": "SIANTAR",
    "Latitude": "2.9387461724992",
    "Longitude": "99.103015454973",
    "Postal": "21195,21157,21151"
  },
  {
    "Code": "1209161",
    "Parent": "1209",
    "Name": "GUNUNG MALELA",
    "Latitude": "3.0232745029953",
    "Longitude": "99.201974049344",
    "Postal": "21153,21195,21175"
  },
  {
    "Code": "1209162",
    "Parent": "1209",
    "Name": "GUNUNG MALIGAS",
    "Latitude": "3.0454906549995",
    "Longitude": "99.143776568482",
    "Postal": "21194,21176"
  },
  {
    "Code": "1209170",
    "Parent": "1209",
    "Name": "HUTABAYU RAJA",
    "Latitude": "3.0165544309996",
    "Longitude": "99.296709047483",
    "Postal": "21182"
  },
  {
    "Code": "1209171",
    "Parent": "1209",
    "Name": "JAWA MARAJA BAH JAMBI",
    "Latitude": "2.9639665565018",
    "Longitude": "99.216619777558",
    "Postal": "21192,21153"
  },
  {
    "Code": "1209180",
    "Parent": "1209",
    "Name": "PEMATANG BANDAR",
    "Latitude": "3.1034011334979",
    "Longitude": "99.236457258939",
    "Postal": "21186"
  },
  {
    "Code": "1209181",
    "Parent": "1209",
    "Name": "BANDAR HULUAN",
    "Latitude": "3.1585324630013",
    "Longitude": "99.220153661036",
    "Postal": "21193,21184"
  },
  {
    "Code": "1209190",
    "Parent": "1209",
    "Name": "BANDAR",
    "Latitude": "3.161992733499",
    "Longitude": "99.323876029971",
    "Postal": "21184,21162"
  },
  {
    "Code": "1209191",
    "Parent": "1209",
    "Name": "BANDAR MASILAM",
    "Latitude": "3.250710641502",
    "Longitude": "99.288690269061",
    "Postal": "21185,21157"
  },
  {
    "Code": "1209200",
    "Parent": "1209",
    "Name": "BOSAR MALIGAS",
    "Latitude": "3.0293129919999",
    "Longitude": "99.388770865994",
    "Postal": "21183"
  },
  {
    "Code": "1209210",
    "Parent": "1209",
    "Name": "UJUNG PADANG",
    "Latitude": "3.0037044274994",
    "Longitude": "99.461419582479",
    "Postal": "21187"
  },
  {
    "Code": "1210030",
    "Parent": "1210",
    "Name": "SIDIKALANG",
    "Latitude": "2.7383904360047",
    "Longitude": "98.316284179663",
    "Postal": "22211,22212,22213,22214,22215,22216,22217,22218,22219"
  },
  {
    "Code": "1210031",
    "Parent": "1210",
    "Name": "BERAMPU",
    "Latitude": "2.732710506506",
    "Longitude": "98.250993128217",
    "Postal": "22256,22251"
  },
  {
    "Code": "1210032",
    "Parent": "1210",
    "Name": "SITINJO",
    "Latitude": "2.7046257080024",
    "Longitude": "98.36356528108",
    "Postal": "22257,22219"
  },
  {
    "Code": "1210040",
    "Parent": "1210",
    "Name": "PARBULUAN",
    "Latitude": "2.6431884765016",
    "Longitude": "98.467477637055",
    "Postal": "22282"
  },
  {
    "Code": "1210050",
    "Parent": "1210",
    "Name": "SUMBUL",
    "Latitude": "2.7529277600008",
    "Longitude": "98.431220421521",
    "Postal": "22281,22284"
  },
  {
    "Code": "1210051",
    "Parent": "1210",
    "Name": "SILAHISABUNGAN",
    "Latitude": "2.7686359144999",
    "Longitude": "98.524159095489",
    "Postal": "22284,22280"
  },
  {
    "Code": "1210060",
    "Parent": "1210",
    "Name": "SILIMA PUNGGA-PUNGGA",
    "Latitude": "2.8567994699973",
    "Longitude": "98.052685081904",
    "Postal": "22262"
  },
  {
    "Code": "1210061",
    "Parent": "1210",
    "Name": "LAE PARIRA",
    "Latitude": "2.7844275989983",
    "Longitude": "98.179912580943",
    "Postal": "22264,22281"
  },
  {
    "Code": "1210070",
    "Parent": "1210",
    "Name": "SIEMPAT NEMPU",
    "Latitude": "2.8121032715012",
    "Longitude": "98.22679237254",
    "Postal": "22261"
  },
  {
    "Code": "1210080",
    "Parent": "1210",
    "Name": "SIEMPAT NEMPU HULU",
    "Latitude": "2.8196105955011",
    "Longitude": "98.276977539031",
    "Postal": "22254"
  },
  {
    "Code": "1210090",
    "Parent": "1210",
    "Name": "SIEMPAT NEMPU HILIR",
    "Latitude": "2.8883056640001",
    "Longitude": "98.058157195007",
    "Postal": "22263"
  },
  {
    "Code": "1210100",
    "Parent": "1210",
    "Name": "TIGA LINGGA",
    "Latitude": "2.8925115050019",
    "Longitude": "98.250832400065",
    "Postal": "22252"
  },
  {
    "Code": "1210101",
    "Parent": "1210",
    "Name": "GUNUNG SITEMBER",
    "Latitude": "2.9384134700022",
    "Longitude": "98.146869343069",
    "Postal": "22255,22250"
  },
  {
    "Code": "1210110",
    "Parent": "1210",
    "Name": "PEGAGAN HILIR",
    "Latitude": "2.8581479010002",
    "Longitude": "98.385471912508",
    "Postal": "22283,22274"
  },
  {
    "Code": "1210120",
    "Parent": "1210",
    "Name": "TANAH PINEM",
    "Latitude": "3.007808411",
    "Longitude": "98.166512128499",
    "Postal": "22253"
  },
  {
    "Code": "1211010",
    "Parent": "1211",
    "Name": "MARDINGDING",
    "Latitude": "3.2336134420002",
    "Longitude": "98.007315149003",
    "Postal": "22165"
  },
  {
    "Code": "1211020",
    "Parent": "1211",
    "Name": "LAUBALENG",
    "Latitude": "3.1625708524988",
    "Longitude": "98.066477779959",
    "Postal": "22163,22164"
  },
  {
    "Code": "1211030",
    "Parent": "1211",
    "Name": "TIGA BINANGA",
    "Latitude": "3.0930482285021",
    "Longitude": "98.220557015066",
    "Postal": "22163,22161,22162"
  },
  {
    "Code": "1211040",
    "Parent": "1211",
    "Name": "JUHAR",
    "Latitude": "2.9989271290007",
    "Longitude": "98.296085843526",
    "Postal": "22163,22164,22161"
  },
  {
    "Code": "1211050",
    "Parent": "1211",
    "Name": "MUNTE",
    "Latitude": "3.0497967969983",
    "Longitude": "98.370314786446",
    "Postal": "22163,22161,22162"
  },
  {
    "Code": "1211060",
    "Parent": "1211",
    "Name": "KUTA BULUH",
    "Latitude": "3.2018234945007",
    "Longitude": "98.213387197521",
    "Postal": "22155"
  },
  {
    "Code": "1211070",
    "Parent": "1211",
    "Name": "PAYUNG",
    "Latitude": "3.1331278979888",
    "Longitude": "98.368621322139",
    "Postal": "22156,22154"
  },
  {
    "Code": "1211071",
    "Parent": "1211",
    "Name": "TIGANDERKET",
    "Latitude": "3.2028474435026",
    "Longitude": "98.358181753579",
    "Postal": "22154,22156"
  },
  {
    "Code": "1211080",
    "Parent": "1211",
    "Name": "SIMPANG EMPAT",
    "Latitude": "3.1424278080051",
    "Longitude": "98.449037242161",
    "Postal": "22153,22150"
  },
  {
    "Code": "1211081",
    "Parent": "1211",
    "Name": "NAMAN TERAN",
    "Latitude": "3.1981815425026",
    "Longitude": "98.417313474579",
    "Postal": "22157,22151"
  },
  {
    "Code": "1211082",
    "Parent": "1211",
    "Name": "MERDEKA",
    "Latitude": "3.2070497304965",
    "Longitude": "98.486175962891",
    "Postal": "22158,22153"
  },
  {
    "Code": "1211090",
    "Parent": "1211",
    "Name": "KABANJAHE",
    "Latitude": "3.1065882149974",
    "Longitude": "98.453593057915",
    "Postal": "22111,22112,22113,22115,22119"
  },
  {
    "Code": "1211100",
    "Parent": "1211",
    "Name": "BERASTAGI",
    "Latitude": "3.1901451340073",
    "Longitude": "98.521363164234",
    "Postal": "22152"
  },
  {
    "Code": "1211110",
    "Parent": "1211",
    "Name": "TIGAPANAH",
    "Latitude": "3.0814431754992",
    "Longitude": "98.502357259978",
    "Postal": "22171,22170"
  },
  {
    "Code": "1211111",
    "Parent": "1211",
    "Name": "DOLAT RAYAT",
    "Latitude": "3.1691800614921",
    "Longitude": "98.542166046769",
    "Postal": "22159,22171"
  },
  {
    "Code": "1211120",
    "Parent": "1211",
    "Name": "MEREK",
    "Latitude": "2.9580457945021",
    "Longitude": "98.474104586568",
    "Postal": "22173"
  },
  {
    "Code": "1211130",
    "Parent": "1211",
    "Name": "BARUSJAHE",
    "Latitude": "3.1294518515007",
    "Longitude": "98.583977098521",
    "Postal": "22172"
  },
  {
    "Code": "1212010",
    "Parent": "1212",
    "Name": "GUNUNG MERIAH",
    "Latitude": "3.1261874850015",
    "Longitude": "98.665848874547",
    "Postal": "20583"
  },
  {
    "Code": "1212020",
    "Parent": "1212",
    "Name": "SINEMBAH TANJUNG MUDA HULU",
    "Latitude": "3.2520360149994",
    "Longitude": "98.697070547481",
    "Postal": "20582"
  },
  {
    "Code": "1212030",
    "Parent": "1212",
    "Name": "SIBOLANGIT",
    "Latitude": "3.3093063305008",
    "Longitude": "98.551363018022",
    "Postal": "20355,20354,20356,20357"
  },
  {
    "Code": "1212040",
    "Parent": "1212",
    "Name": "KUTALIMBARU",
    "Latitude": "3.3991775774997",
    "Longitude": "98.512400171995",
    "Postal": "20355,20354,20357,20352"
  },
  {
    "Code": "1212050",
    "Parent": "1212",
    "Name": "PANCUR BATU",
    "Latitude": "3.4867725299989",
    "Longitude": "98.581290653965",
    "Postal": "20353"
  },
  {
    "Code": "1212060",
    "Parent": "1212",
    "Name": "NAMO RAMBE",
    "Latitude": "3.446073951498",
    "Longitude": "98.63322695993",
    "Postal": "20355,20356,20358,20357"
  },
  {
    "Code": "1212070",
    "Parent": "1212",
    "Name": "BIRU-BIRU",
    "Latitude": "3.3847815149971",
    "Longitude": "98.658045899915",
    "Postal": "20358"
  },
  {
    "Code": "1212080",
    "Parent": "1212",
    "Name": "SINEMBAH TANJUNG MUDA HILIR",
    "Latitude": "3.3748789950012",
    "Longitude": "98.715313980036",
    "Postal": "20363"
  },
  {
    "Code": "1212090",
    "Parent": "1212",
    "Name": "BANGUN PURBA",
    "Latitude": "3.3712984390022",
    "Longitude": "98.812227420067",
    "Postal": "20581"
  },
  {
    "Code": "1212190",
    "Parent": "1212",
    "Name": "GALANG",
    "Latitude": "3.424826203003",
    "Longitude": "98.872830636582",
    "Postal": "20585"
  },
  {
    "Code": "1212200",
    "Parent": "1212",
    "Name": "TANJUNG MORAWA",
    "Latitude": "3.5290340100001",
    "Longitude": "98.804577059998",
    "Postal": "20362"
  },
  {
    "Code": "1212210",
    "Parent": "1212",
    "Name": "PATUMBAK",
    "Latitude": "3.4855348440126",
    "Longitude": "98.723127345367",
    "Postal": "20361"
  },
  {
    "Code": "1212220",
    "Parent": "1212",
    "Name": "DELI TUA",
    "Latitude": "3.4999300210251",
    "Longitude": "98.689505784698",
    "Postal": "20355,20354,20356,20357"
  },
  {
    "Code": "1212230",
    "Parent": "1212",
    "Name": "SUNGGAL",
    "Latitude": "3.6019484734986",
    "Longitude": "98.588594098961",
    "Postal": "20354,20356,20358,20357,20352,20351"
  },
  {
    "Code": "1212240",
    "Parent": "1212",
    "Name": "HAMPARAN PERAK",
    "Latitude": "3.7767574189996",
    "Longitude": "98.605747964986",
    "Postal": "20374"
  },
  {
    "Code": "1212250",
    "Parent": "1212",
    "Name": "LABUHAN DELI",
    "Latitude": "3.7766260830005",
    "Longitude": "98.674707736513",
    "Postal": "20373"
  },
  {
    "Code": "1212260",
    "Parent": "1212",
    "Name": "PERCUT SEI TUAN",
    "Latitude": "3.650536642",
    "Longitude": "98.741788366007",
    "Postal": "20371,20358"
  },
  {
    "Code": "1212270",
    "Parent": "1212",
    "Name": "BATANG KUIS",
    "Latitude": "3.6289154699927",
    "Longitude": "98.817387399293",
    "Postal": "20372"
  },
  {
    "Code": "1212280",
    "Parent": "1212",
    "Name": "PANTAI LABU",
    "Latitude": "3.6677043849952",
    "Longitude": "98.875917177874",
    "Postal": "20553"
  },
  {
    "Code": "1212290",
    "Parent": "1212",
    "Name": "BERINGIN",
    "Latitude": "3.6242205299967",
    "Longitude": "98.877302459905",
    "Postal": "20552"
  },
  {
    "Code": "1212300",
    "Parent": "1212",
    "Name": "LUBUK PAKAM",
    "Latitude": "3.5678619900006",
    "Longitude": "98.885466086527",
    "Postal": "20511,20512,20513,20514,20515,20516,20517,20518"
  },
  {
    "Code": "1212310",
    "Parent": "1212",
    "Name": "PAGAR MERBAU",
    "Latitude": "3.5654495939982",
    "Longitude": "98.894612389957",
    "Postal": "20551,20358"
  },
  {
    "Code": "1213010",
    "Parent": "1213",
    "Name": "BOHOROK",
    "Latitude": "3.4347749739996",
    "Longitude": "98.073878797989",
    "Postal": "20771,20774"
  },
  {
    "Code": "1213011",
    "Parent": "1213",
    "Name": "SIRAPIT",
    "Latitude": "3.5708651064988",
    "Longitude": "98.306279516964",
    "Postal": "20776,20775"
  },
  {
    "Code": "1213020",
    "Parent": "1213",
    "Name": "SALAPIAN",
    "Latitude": "3.4343819959986",
    "Longitude": "98.307321580961",
    "Postal": "20774,20773,20777"
  },
  {
    "Code": "1213021",
    "Parent": "1213",
    "Name": "KUTAMBARU",
    "Latitude": "3.3323775655005",
    "Longitude": "98.278937581016",
    "Postal": "20775,20773"
  },
  {
    "Code": "1213030",
    "Parent": "1213",
    "Name": "SEI BINGAI",
    "Latitude": "3.3997217380004",
    "Longitude": "98.437465425012",
    "Postal": "20771"
  },
  {
    "Code": "1213040",
    "Parent": "1213",
    "Name": "KUALA",
    "Latitude": "3.4330623794998",
    "Longitude": "98.390233625995",
    "Postal": "20772"
  },
  {
    "Code": "1213050",
    "Parent": "1213",
    "Name": "SELESAI",
    "Latitude": "3.6060537644994",
    "Longitude": "98.377968365478",
    "Postal": "20762"
  },
  {
    "Code": "1213060",
    "Parent": "1213",
    "Name": "BINJAI",
    "Latitude": "3.6599818129929",
    "Longitude": "98.4636523523",
    "Postal": "20761"
  },
  {
    "Code": "1213070",
    "Parent": "1213",
    "Name": "STABAT",
    "Latitude": "3.7331941755042",
    "Longitude": "98.456615534605",
    "Postal": "20811,20812,20813,20814,20815,20817,20818,20819,20816"
  },
  {
    "Code": "1213080",
    "Parent": "1213",
    "Name": "WAMPU",
    "Latitude": "3.7098771904987",
    "Longitude": "98.350754822465",
    "Postal": "20885,20851"
  },
  {
    "Code": "1213090",
    "Parent": "1213",
    "Name": "BATANG SERANGAN",
    "Latitude": "3.7011320620005",
    "Longitude": "98.048261638013",
    "Postal": "20883,20852"
  },
  {
    "Code": "1213100",
    "Parent": "1213",
    "Name": "SAWIT SEBERANG",
    "Latitude": "3.8214515299999",
    "Longitude": "98.252035644995",
    "Postal": "20884,20811"
  },
  {
    "Code": "1213110",
    "Parent": "1213",
    "Name": "PADANG TUALANG",
    "Latitude": "3.8015272665006",
    "Longitude": "98.327834001513",
    "Postal": "20852,20850"
  },
  {
    "Code": "1213120",
    "Parent": "1213",
    "Name": "HINAI",
    "Latitude": "3.8407323204985",
    "Longitude": "98.425442859464",
    "Postal": "20854"
  },
  {
    "Code": "1213130",
    "Parent": "1213",
    "Name": "SECANGGANG",
    "Latitude": "3.8598901554999",
    "Longitude": "98.565048542494",
    "Postal": "20855"
  },
  {
    "Code": "1213140",
    "Parent": "1213",
    "Name": "TANJUNG PURA",
    "Latitude": "3.9645244264983",
    "Longitude": "98.47947524096",
    "Postal": "20853"
  },
  {
    "Code": "1213150",
    "Parent": "1213",
    "Name": "GEBANG",
    "Latitude": "3.9837145915008",
    "Longitude": "98.376495621014",
    "Postal": "20856"
  },
  {
    "Code": "1213160",
    "Parent": "1213",
    "Name": "BABALAN",
    "Latitude": "4.0242692810054",
    "Longitude": "98.342488100627",
    "Postal": "20857"
  },
  {
    "Code": "1213170",
    "Parent": "1213",
    "Name": "SEI LEPAN",
    "Latitude": "3.9061437850001",
    "Longitude": "98.156996308999",
    "Postal": "20882,20776"
  },
  {
    "Code": "1213180",
    "Parent": "1213",
    "Name": "BRANDAN BARAT",
    "Latitude": "4.0306461030036",
    "Longitude": "98.254975291588",
    "Postal": "20881"
  },
  {
    "Code": "1213190",
    "Parent": "1213",
    "Name": "BESITANG",
    "Latitude": "3.9832383375002",
    "Longitude": "98.061818721",
    "Postal": "20859"
  },
  {
    "Code": "1213200",
    "Parent": "1213",
    "Name": "PANGKALAN SUSU",
    "Latitude": "4.1624843005031",
    "Longitude": "98.21692711307",
    "Postal": "20858"
  },
  {
    "Code": "1213201",
    "Parent": "1213",
    "Name": "PEMATANG JAYA",
    "Latitude": "4.1924011699988",
    "Longitude": "98.160148235471",
    "Postal": "20891,20858,20859"
  },
  {
    "Code": "1214010",
    "Parent": "1214",
    "Name": "HIBALA",
    "Latitude": "-0.45987564549996",
    "Longitude": "98.444929164002",
    "Postal": "22882,22881"
  },
  {
    "Code": "1214011",
    "Parent": "1214",
    "Name": "TANAH MASA",
    "Latitude": "-0.27513284499994",
    "Longitude": "98.461871376499",
    "Postal": "22887"
  },
  {
    "Code": "1214020",
    "Parent": "1214",
    "Name": "PULAU-PULAU BATU",
    "Latitude": "-0.048230206999936",
    "Longitude": "98.313963000496",
    "Postal": "22881,22882"
  },
  {
    "Code": "1214021",
    "Parent": "1214",
    "Name": "PULAU-PULAU BATU TIMUR",
    "Latitude": "-0.00099166149992088",
    "Longitude": "98.681023927003",
    "Postal": "22883,22884"
  },
  {
    "Code": "1214022",
    "Parent": "1214",
    "Name": "SIMUK",
    "Latitude": "-0.083669554999961",
    "Longitude": "97.867972835488",
    "Postal": "22886"
  },
  {
    "Code": "1214023",
    "Parent": "1214",
    "Name": "PULAU-PULAU BATU BARAT",
    "Latitude": "-0.31900840299993",
    "Longitude": "98.278318295",
    "Postal": "22883"
  },
  {
    "Code": "1214024",
    "Parent": "1214",
    "Name": "PULAU-PULAU BATU UTARA",
    "Latitude": "-0.016217392999911",
    "Longitude": "98.3358008505",
    "Postal": "22885"
  },
  {
    "Code": "1214030",
    "Parent": "1214",
    "Name": "TELUK DALAM",
    "Latitude": "0.58273494150006",
    "Longitude": "97.834961299503",
    "Postal": "22865"
  },
  {
    "Code": "1214031",
    "Parent": "1214",
    "Name": "FANAYAMA",
    "Latitude": "0.62617992150011",
    "Longitude": "97.791089841007",
    "Postal": "22834,22835,22865"
  },
  {
    "Code": "1214032",
    "Parent": "1214",
    "Name": "TOMA",
    "Latitude": "0.66543397350017",
    "Longitude": "97.875752088529",
    "Postal": "22835,22865"
  },
  {
    "Code": "1214033",
    "Parent": "1214",
    "Name": "MANIAMOLO",
    "Latitude": "0.66128981550052",
    "Longitude": "97.730074827572",
    "Postal": "22833,22865"
  },
  {
    "Code": "1214034",
    "Parent": "1214",
    "Name": "MAZINO",
    "Latitude": "0.70565655749979",
    "Longitude": "97.824101950455",
    "Postal": "22836,22839,22865"
  },
  {
    "Code": "1214035",
    "Parent": "1214",
    "Name": "LUAHAGUNDRE MANIAMOLO",
    "Latitude": "0.58892698400023",
    "Longitude": "97.727982443033",
    "Postal": "22868"
  },
  {
    "Code": "1214036",
    "Parent": "1214",
    "Name": "ONOLALU",
    "Latitude": "0.63826606600043",
    "Longitude": "97.832481715056",
    "Postal": "22869"
  },
  {
    "Code": "1214040",
    "Parent": "1214",
    "Name": "AMANDRAYA",
    "Latitude": "0.73267961100015",
    "Longitude": "97.696056229014",
    "Postal": "22866,22862"
  },
  {
    "Code": "1214041",
    "Parent": "1214",
    "Name": "ARAMO",
    "Latitude": "0.73518548599976",
    "Longitude": "97.734867105464",
    "Postal": "22832,22866"
  },
  {
    "Code": "1214042",
    "Parent": "1214",
    "Name": "ULUSUSUA",
    "Latitude": "0.76321644700002",
    "Longitude": "97.697496147001",
    "Postal": "22866"
  },
  {
    "Code": "1214050",
    "Parent": "1214",
    "Name": "LAHUSA",
    "Latitude": "0.75878491550059",
    "Longitude": "97.832250323068",
    "Postal": "22874"
  },
  {
    "Code": "1214051",
    "Parent": "1214",
    "Name": "SIDUAORI",
    "Latitude": "0.83603855800023",
    "Longitude": "97.836616909511",
    "Postal": "22874"
  },
  {
    "Code": "1214052",
    "Parent": "1214",
    "Name": "SOMAMBAWA",
    "Latitude": "0.8323144465002",
    "Longitude": "97.876567588501",
    "Postal": "22874"
  },